cap_no,first_names,surname,birth_date,approx_brithdate,birth_location,approx_birth_location,position,debut_match,debut_location,debut_date,matches_played,match_starts,sub_starts,points,tries,converstions,penalties,drop_goals,goals_from_mark,won,lost,draw,win_rate,country,lon,lat
1,Jim,Bevan,1858-04-15,FALSE,"St Kilda, VIC",FALSE,Three-quarters,England v Wales,Blackheath,1881-02-19,1,1,0,0,0,0,0,0,0,0,1,0,0,Wales,144.982,-37.864
2,Godfrey,Darbishire,1853-09-26,FALSE,"Chorlton, Lancs",FALSE,Forward,England v Wales,Blackheath,1881-02-19,1,1,0,0,0,0,0,0,0,0,1,0,0,Wales,-2.27829,53.444858
3,Barry,Girling,1857-10-29,FALSE,Bristol,FALSE,Forward,England v Wales,Blackheath,1881-02-19,1,1,0,0,0,0,0,0,0,0,1,0,0,Wales,-2.58791,51.454513
4,George,Harding,1858-08-14,FALSE,"Rusholme, Lancs",FALSE,Forward,England v Wales,Blackheath,1881-02-19,4,4,0,0,0,0,0,0,0,1,3,0,0.25,Wales,-2.2281277,53.4549564
5,Edward,Lewis,1859-12-05,FALSE,Llandovery,FALSE,Halfback,England v Wales,Blackheath,1881-02-19,1,1,0,0,0,0,0,0,0,0,1,0,0,Wales,-3.797508,51.997395
6,Bathurst,Mann,1858-05-17,FALSE,"The Curragh, Kildare",FALSE,Forward,England v Wales,Blackheath,1881-02-19,1,1,0,0,0,0,0,0,0,0,1,0,0,Wales,-6.828595399999999,53.1420265
7,Charlie,Newman,1857-02-28,FALSE,Newport,FALSE,Halfback,England v Wales,Blackheath,1881-02-19,10,10,0,0,0,0,0,0,0,1,7,2,0.1,Wales,-94.1043876,37.5278234
8,Edward,Peake,1860-03-29,FALSE,"Wirewood's Green, Glo",FALSE,Three-quarters,England v Wales,Blackheath,1881-02-19,1,1,0,0,0,0,0,0,0,0,1,0,0,Wales,-81.3649291,28.6627388
9,William,Phillips,1855-08-16,FALSE,Cardiff,FALSE,Forward,England v Wales,Blackheath,1881-02-19,5,5,0,0,0,0,0,0,0,2,3,0,0.4,Wales,-3.17909,51.48158100000001
10,Frank,Purdon,1857-11-08,FALSE,"Kilcooley, Meath",FALSE,Forward,England v Wales,Blackheath,1881-02-19,4,4,0,0,0,0,0,0,0,1,3,0,0.25,Wales,-6.760789099999999,53.5763675
11,Aneurin,Rees,1858-04-09,FALSE,"Tonn, Llandovery",FALSE,Forward,England v Wales,Blackheath,1881-02-19,1,1,0,0,0,0,0,0,0,0,1,0,0,Wales,-3.802687,52.002038
12,Richard,Summers,1860-07-30,FALSE,Rosemoor,FALSE,Fullback,England v Wales,Blackheath,1881-02-19,1,1,0,0,0,0,0,0,0,0,1,0,0,Wales,-87.61386999999999,41.7109788
13,Edward,Treharne,1862-03-22,FALSE,Pentre,FALSE,Forward,England v Wales,Blackheath,1881-02-19,2,2,0,0,0,0,0,0,0,0,2,0,0,Wales,-3.491629,51.654745
14,Leonard,Watkins,1859-12-07,FALSE,Llandaff,FALSE,Halfback,England v Wales,Blackheath,1881-02-19,1,1,0,0,0,0,0,0,0,0,1,0,0,Wales,-3.2239582,51.4944589
15,Richard,Williams,1856-06-15,FALSE,Llowes,FALSE,Forward,England v Wales,Blackheath,1881-02-19,1,1,0,0,0,0,0,0,0,0,1,0,0,Wales,-3.179815,52.067003
16,Thomas,Baker-Jones,1862-09-16,FALSE,Newport,FALSE,Forward,Ireland v Wales,Lansdowne Road,1882-01-28,6,6,0,0,1,0,0,0,0,1,4,1,0.16666666666666666,Wales,-94.1043876,37.5278234
17,Ronald,Bridie,1862-06-26,FALSE,"at sea Cape of Good, -",FALSE,Halfback,Ireland v Wales,Lansdowne Road,1882-01-28,1,1,0,0,1,0,0,0,0,1,0,0,1,Wales,18.4739882,-34.3568425
18,Tom,Clapp,1858-10-25,FALSE,"Marylebone, Middx",FALSE,Forward,Ireland v Wales,Lansdowne Road,1882-01-28,14,14,0,0,2,0,0,0,0,4,8,2,0.2857142857142857,Wales,-0.1476845,51.5205813
19,Samuel,Clark,1857-05-17,FALSE,Weymouth,FALSE,Fullback,Ireland v Wales,Lansdowne Road,1882-01-28,2,2,0,0,0,0,0,0,0,2,0,0,1,Wales,-70.94103559999999,42.2180724
20,Bill,Evans,1857-04-24,FALSE,Rhymney,FALSE,Three-quarters,Ireland v Wales,Lansdowne Road,1882-01-28,2,2,0,0,1,0,0,0,0,1,1,0,0.5,Wales,-3.2853629,51.759452
21,Bob,Gould,1863-02-26,FALSE,Newport,FALSE,Forward,Ireland v Wales,Lansdowne Road,1882-01-28,11,11,0,0,0,0,0,0,0,2,7,2,0.18181818181818182,Wales,-94.1043876,37.5278234
22,Charles,Lewis,1853-08-20,FALSE,Llanwrda,FALSE,Fullback,Ireland v Wales,Lansdowne Road,1882-01-28,5,5,0,4,0,4,0,0,0,1,4,0,0.2,Wales,-3.874428,51.968201
23,George,Morris,1859-01-29,FALSE,"Sketty Park, Swansea",FALSE,Forward,Ireland v Wales,Lansdowne Road,1882-01-28,5,5,0,0,0,0,0,0,0,1,4,0,0.2,Wales,-3.9951841,51.615907
24,William,Norton,1862-04-28,FALSE,Carmarthen,FALSE,Three-quarters,Ireland v Wales,Lansdowne Road,1882-01-28,6,6,0,0,1,0,0,0,0,2,4,0,0.3333333333333333,Wales,-4.312131,51.85762
25,Hugh,Vincent,1862-04-27,FALSE,Caernarfon,FALSE,Forward,Ireland v Wales,Lansdowne Road,1882-01-28,1,1,0,0,0,0,0,0,0,1,0,0,1,Wales,-4.273911,53.139551
26,Tom,Williams,1859-10-09,FALSE,"Pandy, Glamorgan",FALSE,Forward,Ireland v Wales,Lansdowne Road,1882-01-28,1,1,0,0,0,0,0,0,0,1,0,0,1,Wales,-3.4429093,51.6077233
27,Harry,Bowen,1864-05-04,FALSE,Llanelly,FALSE,Fullback,Wales v England,Swansea,1882-12-16,4,4,0,0,0,0,0,0,0,0,3,1,0,Wales,-3.114332,51.824049
28,Alfred,Cattell,1857-04-27,FALSE,"Cottesmore, Rutland",FALSE,Forward,Wales v England,Swansea,1882-12-16,2,2,0,0,0,0,0,0,0,0,2,0,0,Wales,-0.6633295,52.713345
29,James,Clare,1857-05-11,FALSE,"Stepney, Middx",FALSE,Three-quarters,Wales v England,Swansea,1882-12-16,1,1,0,0,0,0,0,0,0,0,1,0,0,Wales,-0.0491574,51.5222254
30,Dai,Gwyn,1861-12-28,FALSE,Swansea,FALSE,Centre,Wales v England,Swansea,1882-12-16,6,6,0,0,0,0,0,0,0,1,4,1,0.16666666666666666,Wales,-3.943645999999999,51.62144
31,Thomas,Judson,1857-07-09,FALSE,"Ashton-under-Lyne, La",FALSE,Forward,Wales v England,Swansea,1882-12-16,2,2,0,0,1,0,0,0,0,0,2,0,0,Wales,-2.1047057,53.4985091
32,John,Griffin,1859-08-02,FALSE,Southampton,FALSE,Forward,Scotland v Wales,Edinburgh,1883-01-08,1,1,0,0,0,0,0,0,0,0,1,0,0,Wales,-72.3895296,40.884267
33,Arthur,Jones,1856-05-26,FALSE,Risca,FALSE,Forward,Scotland v Wales,Edinburgh,1883-01-08,1,1,0,0,0,0,0,0,0,0,1,0,0,Wales,-71.41570449999999,41.8328524
34,Horace,Lyne,1860-12-31,FALSE,Newport,FALSE,Forward,Scotland v Wales,Edinburgh,1883-01-08,5,5,0,0,0,0,0,0,0,1,4,0,0.2,Wales,-94.1043876,37.5278234
35,Charles,Allen,1861-12-02,FALSE,"Prestwich, Lancashire",FALSE,Three-quarters,England v Wales,Leeds,1884-01-05,2,2,0,0,1,0,0,0,0,0,2,0,0,Wales,-2.2865926,53.529488
36,Frederick,Andrews,1864-09-15,FALSE,Swansea,FALSE,Forward,England v Wales,Leeds,1884-01-05,2,2,0,0,0,0,0,0,0,0,2,0,0,Wales,-3.943645999999999,51.62144
37,William,Gwynn,1856-03-27,FALSE,Swansea,FALSE,Halfback,England v Wales,Leeds,1884-01-05,5,5,0,0,0,0,0,0,0,1,3,1,0.2,Wales,-3.943645999999999,51.62144
38,Frederick,Margrave,1858-12-25,FALSE,Llanelly,FALSE,Forward,England v Wales,Leeds,1884-01-05,2,2,0,0,0,0,0,0,0,0,2,0,0,Wales,-3.114332,51.824049
39,Joe,Simpson,1855-12-16,FALSE,"Sedgefield, Durham",FALSE,Forward,England v Wales,Leeds,1884-01-05,3,3,0,0,0,0,0,0,0,1,2,0,0.3333333333333333,Wales,-1.4516577,54.6594559
40,John,Smith,NA,NA,Manchester,FALSE,Forward,England v Wales,Leeds,1884-01-05,3,3,0,0,0,0,0,0,0,1,2,0,0.3333333333333333,Wales,-2.2426305,53.4807593
41,Charles,Taylor,1863-05-08,FALSE,Ruabon,FALSE,Three-quarters,England v Wales,Leeds,1884-01-05,9,9,0,1,0,1,0,0,0,2,5,2,0.2222222222222222,Wales,-3.040724,52.98654399999999
42,Tom,Barlow,1864-11-03,FALSE,"Pendleton, Lancs",FALSE,Fullback,Wales v Ireland,Cardiff,1884-04-12,1,1,0,0,0,0,0,0,0,1,0,0,1,Wales,-2.3715374,53.8518892
43,Samuel,Goldsworthy,1855-02-11,FALSE,Swansea,FALSE,Forward,Wales v Ireland,Cardiff,1884-04-12,3,3,0,0,0,0,0,0,0,1,1,1,0.3333333333333333,Wales,-3.943645999999999,51.62144
44,Frank,Hancock,1859-12-07,FALSE,Wiveliscombe,FALSE,Three-quarters,Wales v Ireland,Cardiff,1884-04-12,4,4,0,0,0,0,0,0,0,1,2,1,0.25,Wales,-3.313501,51.043574
45,John,Hinton,1860-12-12,FALSE,Bombay,FALSE,Forward,Wales v Ireland,Cardiff,1884-04-12,1,1,0,0,0,0,0,0,0,1,0,0,1,Wales,72.8776559,19.0759837
46,Buckley,Roderick,1862-01-17,FALSE,Llanelly,FALSE,Forward,Wales v Ireland,Cardiff,1884-04-12,1,1,0,0,0,0,0,0,0,1,0,0,1,Wales,-3.114332,51.824049
47,Buller,Staddan,1861-01-01,TRUE,Cardiff,FALSE,Halfback,Wales v Ireland,Cardiff,1884-04-12,8,8,0,1,2,0,0,1,0,5,3,0,0.625,Wales,-3.17909,51.48158100000001
48,Arthur,Gould,1864-10-10,FALSE,Newport,FALSE,Centre,Wales v England,Swansea,1885-01-03,27,27,0,13,4,1,0,2,0,10,14,3,0.37037037037037035,Wales,-94.1043876,37.5278234
49,Martyn,Jordan,1865-03-07,FALSE,"Clifton, Bristol",FALSE,Three-quarters,Wales v England,Swansea,1885-01-03,3,3,0,0,2,0,0,0,0,0,2,1,0,Wales,-2.6200362,51.46615509999999
50,Evan,Richards,1862-01-23,FALSE,Swansea,FALSE,Forward,Wales v England,Swansea,1885-01-03,2,2,0,0,0,0,0,0,0,0,2,0,0,Wales,-3.943645999999999,51.62144
51,Ernest,Rowland,1864-09-21,FALSE,Neath,FALSE,Forward,Wales v England,Swansea,1885-01-03,1,1,0,0,0,0,0,0,0,0,1,0,0,Wales,-3.805476,51.656991
52,Lewis,Thomas,1865-08-06,FALSE,Merthyr Tydfil,FALSE,Forward,Wales v England,Swansea,1885-01-03,2,2,0,0,0,0,0,0,0,0,1,1,0,Wales,-3.381646,51.74872999999999
53,Edward,Alexander,1863-08-07,FALSE,Monknash,FALSE,Forward,Scotland v Wales,Glasgow,1885-01-10,5,5,0,0,0,0,0,0,0,1,2,2,0.2,Wales,-3.556041,51.425458
54,Frank,Hill,1866-01-13,FALSE,Cardiff,FALSE,Forward,Scotland v Wales,Glasgow,1885-01-10,15,15,0,0,0,0,0,0,0,6,7,2,0.4,Wales,-3.17909,51.48158100000001
55,David,Morgans,1863-03-02,FALSE,Llanwrda,FALSE,Forward,Scotland v Wales,Glasgow,1885-01-10,7,7,0,0,1,0,0,0,0,1,4,2,0.14285714285714285,Wales,-3.874428,51.968201
56,Willie,Thomas,1866-03-22,FALSE,Fishguard,FALSE,Forward,Scotland v Wales,Glasgow,1885-01-10,11,11,0,0,0,0,0,0,0,3,5,3,0.2727272727272727,Wales,-4.975989000000001,51.993927
57,William,Bowen,1862-07-21,FALSE,Pembroke,FALSE,Forward,England v Wales,Blackheath,1886-01-02,13,13,0,0,0,0,0,0,0,3,8,2,0.23076923076923078,Wales,-79.1950373,34.6801626
58,Billy,Douglas,1863-07-02,FALSE,Barry,FALSE,Three-quarters,England v Wales,Blackheath,1886-01-02,4,4,0,0,0,0,0,0,0,0,3,1,0,Wales,-95.705564999999993,37.2248725
59,Dai,Lewis,1866-12-04,FALSE,Radyr,FALSE,Forward,England v Wales,Blackheath,1886-01-02,2,2,0,0,0,0,0,0,0,0,2,0,0,Wales,-3.2610531,51.518944
60,Evan,Roberts,1861-09-19,FALSE,Llanelly,FALSE,Forward,England v Wales,Blackheath,1886-01-02,2,2,0,0,0,0,0,0,0,1,1,0,0.5,Wales,-3.114332,51.824049
61,George,Young,1866-03-23,FALSE,North Shields,FALSE,Forward,England v Wales,Blackheath,1886-01-02,2,2,0,0,0,0,0,0,0,0,2,0,0,Wales,-1.449138,55.010762
62,Alfred,Mathews,1864-02-07,FALSE,Rhymney,FALSE,Halfback,Wales v Scotland,Cardiff,1886-01-09,1,1,0,0,0,0,0,0,0,0,1,0,0,Wales,-3.2853629,51.759452
63,Alec,Bland,1866-11-24,FALSE,Uzmaston,FALSE,Forward,Wales v England,Llanelli,1887-01-08,9,9,0,0,0,0,0,0,0,4,3,2,0.4444444444444444,Wales,-4.944396999999999,51.79133299999999
64,Jem,Evans,1867-05-18,FALSE,Cardiff,FALSE,Halfback,Wales v England,Llanelli,1887-01-08,4,4,0,0,0,0,0,0,0,1,2,1,0.25,Wales,-3.17909,51.48158100000001
65,Albert,Hybart,1865-10-04,FALSE,Cardiff,FALSE,Forward,Wales v England,Llanelli,1887-01-08,1,1,0,0,0,0,0,0,0,0,0,1,0,Wales,-3.17909,51.48158100000001
66,Thomas,Lockwood,NA,NA,Chester,FALSE,Forward,Wales v England,Llanelli,1887-01-08,3,3,0,0,0,0,0,0,0,1,1,1,0.3333333333333333,Wales,-89.82205049999999,37.9136628
67,George,Bowen,1863-01-01,TRUE,Morriston,FALSE,Three-quarters,Scotland v Wales,Edinburgh,1887-02-26,4,4,0,0,0,0,0,0,0,2,2,0,0.5,Wales,-82.43809700000001,29.2814888
68,Hugh,Hughes,1863-10-15,FALSE,Llanegryn,FALSE,Fullback,Scotland v Wales,Edinburgh,1887-02-26,2,2,0,0,0,0,0,0,0,0,2,0,0,Wales,-4.069849899999999,52.628549
69,William,Williams,1866-12-15,FALSE,"Icomb, Glos",FALSE,Forward,Scotland v Wales,Edinburgh,1887-02-26,5,5,0,0,0,0,0,0,0,2,3,0,0.4,Wales,-1.6934783,51.9021553
70,Johnny,Lewis,1859-12-25,FALSE,Llanelly,FALSE,Halfback,Ireland v Wales,Birkenhead,1887-03-12,1,1,0,0,0,0,0,0,0,1,0,0,1,Wales,-3.114332,51.824049
71,William,Towers,1861-01-01,TRUE,West Hartlepool,FALSE,Forward,Ireland v Wales,Birkenhead,1887-03-12,2,2,0,0,1,0,0,0,0,2,0,0,1,Wales,-1.212926,54.691745
72,William,Howell,1863-11-22,FALSE,Swansea,FALSE,Forward,Wales v Scotland,Newport,1888-02-04,2,2,0,0,0,0,0,0,0,1,1,0,0.5,Wales,-3.943645999999999,51.62144
73,Price,Jenkins-Price,1864-02-01,FALSE,Henllan Amgoed,FALSE,Three-quarters,Wales v Scotland,Newport,1888-02-04,2,2,0,0,1,0,0,0,0,1,1,0,0.5,Wales,-4.64374,51.848841
74,Dick,Kedzlie,1861-03-22,FALSE,Glasgow,FALSE,Forward,Wales v Scotland,Newport,1888-02-04,2,2,0,0,0,0,0,0,0,1,1,0,0.5,Wales,-4.251806,55.864237
75,John,Meredith,1863-01-01,TRUE,Swansea,FALSE,Forward,Wales v Scotland,Newport,1888-02-04,4,4,0,0,0,0,0,0,0,2,2,0,0.5,Wales,-3.943645999999999,51.62144
76,Dick,Powell,1864-04-10,FALSE,Abergavenny,FALSE,Forward,Wales v Scotland,Newport,1888-02-04,2,2,0,0,0,0,0,0,0,1,1,0,0.5,Wales,-3.019423,51.825366
77,Ned,Roberts,1867-11-08,FALSE,Llanelly,FALSE,Fullback,Wales v Scotland,Newport,1888-02-04,3,3,0,0,0,0,0,0,0,1,2,0,0.3333333333333333,Wales,-3.114332,51.824049
78,Thomas,Williams,NA,NA,Not Available,FALSE,Forward,Wales v Scotland,Newport,1888-02-04,2,2,0,0,0,0,0,0,0,1,1,0,0.5,Wales,-122.2636808,37.8009514
79,Charlie,Arthur,1863-01-21,FALSE,King's Lynn,FALSE,Centre,Ireland v Wales,Lansdowne Road,1888-03-03,3,3,0,0,0,0,0,0,0,1,2,0,0.3333333333333333,Wales,0.4022963000000001,52.7516798
80,Charlie,Thomas,1864-02-08,FALSE,Newport,FALSE,Halfback,Ireland v Wales,Lansdowne Road,1888-03-03,9,9,0,1,1,0,0,0,0,3,5,1,0.3333333333333333,Wales,-94.1043876,37.5278234
81,Norman,Biggs,1870-11-03,FALSE,Cardiff,FALSE,Wing,Wales v New Zealand Natives,Swansea,1888-12-22,8,8,0,4,2,0,0,0,0,4,4,0,0.5,Wales,-3.17909,51.48158100000001
82,Dickie,Garrett,1865-01-01,TRUE,Penarth,FALSE,Centre,Wales v New Zealand Natives,Swansea,1888-12-22,8,8,0,0,0,0,0,0,0,3,4,1,0.375,Wales,-3.173507,51.438798
83,Dan,Griffiths,1857-02-20,FALSE,Cwmduad,FALSE,Forward,Wales v New Zealand Natives,Swansea,1888-12-22,2,2,0,0,0,0,0,0,0,1,1,0,0.5,Wales,-4.365213,51.955576
84,Jim,Hannan,1864-10-12,FALSE,Newport,FALSE,Forward,Wales v New Zealand Natives,Swansea,1888-12-22,19,19,0,2,2,0,0,0,0,7,11,1,0.3684210526315789,Wales,-94.1043876,37.5278234
85,Charles,Harding,1860-05-27,FALSE,"Rusholme, Lancs",FALSE,Forward,Wales v New Zealand Natives,Swansea,1888-12-22,3,3,0,0,0,0,0,0,0,1,2,0,0.3333333333333333,Wales,-2.2281277,53.4549564
86,Syd,Nicholls,1868-05-29,FALSE,"Hartpury, Glos",FALSE,Forward,Wales v New Zealand Natives,Swansea,1888-12-22,4,4,0,0,0,0,0,0,0,1,3,0,0.25,Wales,-2.2935285,51.9241098
87,George,Thomas,1857-03-08,FALSE,Newport,FALSE,Wing,Wales v New Zealand Natives,Swansea,1888-12-22,3,3,0,0,1,0,0,0,0,1,1,1,0.3333333333333333,Wales,-94.1043876,37.5278234
88,Jim,Webb,1863-01-15,FALSE,"Broughton Gifford, Wi",FALSE,Fullback,Wales v New Zealand Natives,Swansea,1888-12-22,2,2,0,1,0,1,0,0,0,1,1,0,0.5,Wales,-2.1739905,51.3722265
89,Teddy,Bishop,1864-10-10,FALSE,Swansea,FALSE,Centre,Scotland v Wales,Edinburgh,1889-02-02,1,1,0,0,0,0,0,0,0,0,1,0,0,Wales,-3.943645999999999,51.62144
90,David,Evans,1866-11-04,FALSE,Dowlais,FALSE,Forward,Scotland v Wales,Edinburgh,1889-02-02,5,5,0,0,0,0,0,0,0,1,3,1,0.2,Wales,-3.347789,51.76181099999999
91,Rosser,Evans,1867-10-06,FALSE,"Cwmbach, Aberdare",FALSE,Halfback,Scotland v Wales,Edinburgh,1889-02-02,1,1,0,0,0,0,0,0,0,0,1,0,0,Wales,-3.413778,51.707264
92,Rowley,Thomas,1864-07-11,FALSE,Henllan Amgoed,FALSE,Forward,Scotland v Wales,Edinburgh,1889-02-02,7,7,0,0,0,0,0,0,0,1,5,1,0.14285714285714285,Wales,-4.64374,51.848841
93,Abel,Davies,1863-05-29,FALSE,Llandysul,FALSE,Wing,Wales v Ireland,Swansea,1889-03-02,1,1,0,0,0,0,0,0,0,0,1,0,0,Wales,-4.309197999999999,52.04167500000001
94,Gitto,Griffiths,1864-09-15,FALSE,Llanelly,FALSE,Halfback,Wales v Ireland,Swansea,1889-03-02,1,1,0,0,0,0,0,0,0,0,1,0,0,Wales,-3.114332,51.824049
95,Tom,Morgan,1866-11-14,FALSE,Llannon,FALSE,Centre,Wales v Ireland,Swansea,1889-03-02,1,1,0,0,0,0,0,0,0,0,1,0,0,Wales,-4.1175977,51.7550252
96,Billy,Bancroft,1871-03-02,FALSE,Swansea,FALSE,Fullback,Wales v Scotland,Cardiff,1890-02-01,33,33,0,60,0,20,4,1,1,16,16,1,0.48484848484848486,Wales,-3.943645999999999,51.62144
97,Evan,James,1869-01-01,TRUE,Lower Llansamlet,FALSE,Halfback,Wales v Scotland,Cardiff,1890-02-01,5,5,0,0,0,0,0,0,0,2,3,0,0.4,Wales,-3.900516,51.664173
98,Percy,Lloyd,1871-01-05,FALSE,"Cross Inn, Llandybie",FALSE,Wing,Wales v Scotland,Cardiff,1890-02-01,4,4,0,0,0,0,0,0,0,2,2,0,0.5,Wales,-3.9879055,51.79273329999999
99,Walter,Rice-Evans,1863-09-10,FALSE,Llantwit Lower,FALSE,Forward,Wales v Scotland,Cardiff,1890-02-01,3,3,0,0,0,0,0,0,0,0,3,0,0,Wales,-3.485246,51.409259
100,Stephen,Thomas,1865-08-22,FALSE,Kidwelly,FALSE,Forward,Wales v Scotland,Cardiff,1890-02-01,3,3,0,0,0,0,0,0,0,2,1,0,0.6666666666666666,Wales,-4.3074709,51.736261
101,Thomas,Graham,1866-11-02,FALSE,Newcastle-upon-Tyne,FALSE,Forward,Ireland v Wales,Lansdowne Road,1890-03-01,12,12,0,3,1,0,0,0,0,5,6,1,0.4166666666666667,Wales,-1.61778,54.978252
102,Hugh,Ingledew,1865-10-23,FALSE,Cardiff,FALSE,Halfback,Ireland v Wales,Lansdowne Road,1890-03-01,3,3,0,0,0,0,0,0,0,0,2,1,0,Wales,-3.17909,51.48158100000001
103,Percy,Bennett,NA,NA,"Padstow, Cornwall",FALSE,Forward,Wales v England,Newport,1891-01-03,4,4,0,0,0,0,0,0,0,0,4,0,0,Wales,-4.939017,50.54206199999999
104,Harry,Packer,1868-09-03,FALSE,"Chipping Norton, Oxon",FALSE,Forward,Wales v England,Newport,1891-01-03,7,7,0,0,0,0,0,0,0,3,4,0,0.42857142857142855,Wales,-1.542189,51.943544
105,Tom,Pearson,1872-05-10,FALSE,Bombay,FALSE,Wing,Wales v England,Newport,1891-01-03,13,13,0,10,4,0,0,0,0,6,7,0,0.46153846153846156,Wales,72.8776559,19.0759837
106,Edward,Pegge,1864-06-05,FALSE,Briton Ferry,FALSE,Forward,Wales v England,Newport,1891-01-03,1,1,0,0,0,0,0,0,0,0,1,0,0,Wales,-3.824315,51.632119
107,David,Daniel,1870-09-06,FALSE,Llanelly,FALSE,Forward,Scotland v Wales,Edinburgh,1891-02-07,8,8,0,0,0,0,0,0,0,3,5,0,0.375,Wales,-3.114332,51.824049
108,Billy,McCutcheon,1870-06-21,FALSE,Swansea,FALSE,Wing,Scotland v Wales,Edinburgh,1891-02-07,7,7,0,2,1,0,0,0,0,3,4,0,0.42857142857142855,Wales,-3.943645999999999,51.62144
109,Ralph,Sweet-Escott,1869-01-11,FALSE,"Essington, Staffs",FALSE,Halfback,Scotland v Wales,Edinburgh,1891-02-07,3,3,0,0,0,0,0,0,0,1,2,0,0.3333333333333333,Wales,-2.0583615,52.6280458
110,Tom,Deacon,1868-02-06,FALSE,Morriston,FALSE,Forward,Wales v Ireland,Llanelli,1891-03-07,4,4,0,0,0,0,0,0,0,1,3,0,0.25,Wales,-82.43809700000001,29.2814888
111,David,James,1866-10-30,FALSE,Swansea,FALSE,Halfback,Wales v Ireland,Llanelli,1891-03-07,4,4,0,0,0,0,0,0,0,2,2,0,0.5,Wales,-3.943645999999999,51.62144
112,Boomer,Nicholl,1870-06-19,FALSE,Llanegwad,FALSE,Forward,Wales v Ireland,Llanelli,1891-03-07,15,15,0,0,0,0,0,0,0,7,8,0,0.4666666666666667,Wales,-4.152086,51.872167
113,David,Samuel,1869-08-29,FALSE,Wainwen,FALSE,Forward,Wales v Ireland,Llanelli,1891-03-07,2,2,0,1,1,0,0,0,0,2,0,0,1,Wales,NA,NA
114,John,Samuel,1867-05-11,FALSE,Wainwen,FALSE,Forward,Wales v Ireland,Llanelli,1891-03-07,1,1,0,0,0,0,0,0,0,1,0,0,1,Wales,NA,NA
115,Arthur,Boucher,1870-06-29,FALSE,"Gobowen, Salop",FALSE,Forward,England v Wales,Blackheath,1892-01-02,13,13,0,3,1,0,0,0,0,5,8,0,0.38461538461538464,Wales,-3.040359,52.89762899999999
116,Frank,Mills,1873-03-18,FALSE,Mountain Ash,FALSE,Forward,England v Wales,Blackheath,1892-01-02,13,13,0,0,0,0,0,0,0,5,8,0,0.38461538461538464,Wales,-84.1288201,36.6575824
117,Percy,Phillips,1869-07-26,FALSE,Machen,FALSE,Fly-half,England v Wales,Blackheath,1892-01-02,6,6,0,0,0,0,0,0,0,4,2,0,0.6666666666666666,Wales,-111.9958051,43.4660771
118,George,Rowles,1865-12-16,FALSE,Talywain,FALSE,Halfback,England v Wales,Blackheath,1892-01-02,1,1,0,0,0,0,0,0,0,0,1,0,0,Wales,-3.071557,51.730524
119,Wallace,Watts,1870-03-25,FALSE,"Cromhall, Glos",FALSE,Forward,England v Wales,Blackheath,1892-01-02,12,12,0,0,0,0,0,0,0,5,7,0,0.4166666666666667,Wales,-2.4431503,51.610657
120,Conway,Rees,1870-01-13,FALSE,Llandovery,FALSE,Centre,Wales v Scotland,Swansea,1892-02-06,3,3,0,0,0,0,0,0,0,1,2,0,0.3333333333333333,Wales,-3.797508,51.997395
121,Harry,Day,1863-08-31,FALSE,"Christchurch, Monmout",FALSE,Forward,Ireland v Wales,Lansdowne Road,1892-03-05,5,5,0,0,0,0,0,0,0,3,2,0,0.6,Wales,-123.2408333,44.8477778
122,Bert,Gould,1870-04-18,FALSE,Newport,FALSE,Centre,Ireland v Wales,Lansdowne Road,1892-03-05,3,3,0,4,2,0,0,0,0,2,1,0,0.6666666666666666,Wales,-94.1043876,37.5278234
123,Frederick,Nicholls,1868-09-02,FALSE,Paddington,FALSE,Wing,Ireland v Wales,Lansdowne Road,1892-03-05,1,1,0,0,0,0,0,0,0,0,1,0,0,Wales,-104.9039628,39.7375666
124,Fred,Parfitt,1869-08-12,FALSE,Pontnewydd,FALSE,Scrum-half,Wales v England,Cardiff,1893-01-07,9,9,0,3,1,0,0,0,0,5,4,0,0.5555555555555556,Wales,-3.0244219,51.6682984
125,Dai,Fitzgerald,1872-01-03,FALSE,Cardiff,FALSE,Centre,Wales v Scotland,Newport,1894-02-03,2,2,0,7,1,0,0,1,0,1,1,0,0.5,Wales,-3.17909,51.48158100000001
126,Llewellyn,Thomas,1872-04-06,FALSE,Brecon,FALSE,Wing,Wales v Scotland,Newport,1894-02-03,3,3,0,0,0,0,0,0,0,2,1,0,0.6666666666666666,Wales,-120.8316768,35.5978941
127,Jack,Elliot,1871-08-13,FALSE,South Shields,FALSE,Scrum-half,Ireland v Wales,Belfast,1894-03-10,3,3,0,0,0,0,0,0,0,1,2,0,0.3333333333333333,Wales,-1.427406,54.999424
128,Fred,Hutchinson,1867-02-06,FALSE,Maesteg,FALSE,Forward,Ireland v Wales,Belfast,1894-03-10,3,3,0,0,0,0,0,0,0,1,2,0,0.3333333333333333,Wales,-3.660466,51.60856200000001
129,David,Nicholl,1871-06-14,FALSE,Llanegwad,FALSE,Forward,Ireland v Wales,Belfast,1894-03-10,1,1,0,0,0,0,0,0,0,0,1,0,0,Wales,-4.152086,51.872167
130,Owen,Badger,1871-11-03,FALSE,Llanelly,FALSE,Centre,Wales v England,Swansea,1895-01-05,4,4,0,0,0,0,0,0,0,1,3,0,0.25,Wales,-3.114332,51.824049
131,Selwyn,Biggs,1872-04-02,FALSE,Cardiff,FALSE,Fly-half,Wales v England,Swansea,1895-01-05,9,9,0,0,0,0,0,0,0,4,5,0,0.4444444444444444,Wales,-3.17909,51.48158100000001
132,Ben,Davies,1873-06-05,FALSE,Llanelly,FALSE,Halfback,Wales v England,Swansea,1895-01-05,2,2,0,0,0,0,0,0,0,0,2,0,0,Wales,-3.114332,51.824049
133,William,Elsey,1870-09-12,FALSE,Lambeth,FALSE,Forward,Wales v England,Swansea,1895-01-05,1,1,0,3,1,0,0,0,0,0,1,0,0,Wales,-0.1230681,51.4571477
134,Tom,Jackson,1870-03-04,FALSE,Swansea,FALSE,Forward,Wales v England,Swansea,1895-01-05,1,1,0,0,0,0,0,0,0,0,1,0,0,Wales,-3.943645999999999,51.62144
135,Ernie,George,1871-07-04,FALSE,Llantwit Major,FALSE,Forward,Scotland v Wales,Edinburgh,1895-01-26,3,3,0,0,0,0,0,0,0,1,2,0,0.3333333333333333,Wales,-3.485246,51.409259
136,Evan,Lloyd,1871-06-06,FALSE,Llanelly,FALSE,Wing,Scotland v Wales,Edinburgh,1895-01-26,1,1,0,0,0,0,0,0,0,0,1,0,0,Wales,-3.114332,51.824049
137,Tom,Pook,1869-03-28,FALSE,"Plymouth, Devon",FALSE,Forward,Scotland v Wales,Edinburgh,1895-01-26,1,1,0,0,0,0,0,0,0,0,1,0,0,Wales,-4.1426565,50.3754565
138,Albert,Jenkin,1872-09-14,FALSE,"Ibsley, Hants",FALSE,Forward,Wales v Ireland,Cardiff,1895-03-16,2,2,0,0,0,0,0,0,0,1,1,0,0.5,Wales,-1.78808,50.88635799999999
139,Dai,Morgan,1872-07-14,FALSE,Llanelly,FALSE,Fly-half,Wales v Ireland,Cardiff,1895-03-16,2,2,0,0,0,0,0,0,0,1,1,0,0.5,Wales,-3.114332,51.824049
140,Cliff,Bowen,1875-01-03,FALSE,Morriston,FALSE,Wing,England v Wales,Blackheath,1896-01-04,4,4,0,3,1,0,0,0,0,2,2,0,0.5,Wales,-82.43809700000001,29.2814888
141,Bert,Dauncey,1871-12-01,FALSE,Pontypool,FALSE,Wing,England v Wales,Blackheath,1896-01-04,3,3,0,0,0,0,0,0,0,1,2,0,0.3333333333333333,Wales,-78.62753769999999,44.1002714
142,Sam,Ramsay,1873-10-03,FALSE,Cumbernauld,FALSE,Forward,England v Wales,Blackheath,1896-01-04,2,2,0,0,0,0,0,0,0,0,1,1,0,Wales,-3.992534,55.945668
143,William,Cope,1870-08-18,FALSE,Roath,FALSE,Forward,Wales v Scotland,Cardiff,1896-01-25,1,1,0,0,0,0,0,0,0,1,0,0,1,Wales,-3.1526313,51.4990248
144,Barry,Davies,1875-01-26,FALSE,Cardiff,FALSE,Forward,Wales v Scotland,Cardiff,1896-01-25,1,1,0,0,0,0,0,0,0,1,0,0,1,Wales,-3.17909,51.48158100000001
145,David,Evans,1872-03-10,FALSE,Twmpath,FALSE,Forward,Wales v Scotland,Cardiff,1896-01-25,4,4,0,0,0,0,0,0,0,2,2,0,0.5,Wales,-3.2213598,51.5323349
146,Jack,Evans,1871-02-23,FALSE,Ammanford,FALSE,Forward,Wales v Scotland,Cardiff,1896-01-25,3,3,0,0,0,0,0,0,0,2,1,0,0.6666666666666666,Wales,-3.988459,51.792888
147,Bill,Morris,1869-10-29,FALSE,Llanelly,FALSE,Forward,Wales v Scotland,Cardiff,1896-01-25,3,3,0,0,0,0,0,0,0,2,1,0,0.6666666666666666,Wales,-3.114332,51.824049
148,Gwyn,Nicholls,1874-07-15,FALSE,"Flaxley, Glos",FALSE,Centre,Wales v Scotland,Cardiff,1896-01-25,28,28,0,19,5,0,0,1,0,19,8,1,0.6785714285714286,Wales,-2.450098,51.83306700000001
149,Llewellyn,Lloyd,1877-02-26,FALSE,Newport,FALSE,Fly-half,Ireland v Wales,Lansdowne Road,1896-03-14,12,12,0,9,3,0,0,0,0,7,5,0,0.5833333333333334,Wales,-94.1043876,37.5278234
150,Fred,Miller,1969-08-12,FALSE,Monkton,FALSE,Forward,Ireland v Wales,Lansdowne Road,1896-03-14,7,7,0,0,0,0,0,0,0,5,2,0,0.7142857142857143,Wales,-76.6145058,39.5781625
151,Fred,Cornish,1876-08-14,FALSE,"Combwich, Somerset",FALSE,Forward,Wales v England,Newport,1897-01-09,4,4,0,0,0,0,0,0,0,2,2,0,0.5,Wales,-3.0632619,51.1733839
152,Dick,Hellings,1873-12-01,FALSE,"Topsham, Devon",FALSE,Forward,Wales v England,Newport,1897-01-09,9,9,0,3,1,0,0,0,0,5,4,0,0.5555555555555556,Wales,-3.466689,50.684555
153,Dan,Jones,1875-05-31,FALSE,Taibach,FALSE,Halfback,Wales v England,Newport,1897-01-09,1,1,0,3,1,0,0,0,0,1,0,0,1,Wales,-3.771794,51.587731
154,Jack,Rapps,1876-07-25,FALSE,Aberaman,FALSE,Forward,Wales v England,Newport,1897-01-09,1,1,0,0,0,0,0,0,0,1,0,0,1,Wales,-3.4322389,51.6861191
155,Billy,Alexander,1874-07-16,FALSE,"Cadoxton, Neath",FALSE,Forward,Ireland v Wales,Limerick,1898-03-19,7,7,0,6,2,0,0,0,0,3,4,0,0.42857142857142855,Wales,-3.799281,51.673094
156,Joe,Booth,1873-05-23,FALSE,Blaenavon,FALSE,Forward,Ireland v Wales,Limerick,1898-03-19,1,1,0,0,0,0,0,0,0,1,0,0,1,Wales,-3.085896,51.772502
157,George,Boots,1874-07-02,FALSE,Aberbeeg,FALSE,Forward,Ireland v Wales,Limerick,1898-03-19,16,16,0,3,1,0,0,0,0,11,4,1,0.6875,Wales,-3.143984,51.709953
158,Hopkin,Davies,1873-06-06,FALSE,Llangyfelach,FALSE,Lock,Ireland v Wales,Limerick,1898-03-19,4,4,0,0,0,0,0,0,0,2,2,0,0.5,Wales,-3.960054,51.671667
159,Tom,Dobson,1871-06-07,FALSE,"Keiss, Caithness",FALSE,Forward,Ireland v Wales,Limerick,1898-03-19,4,4,0,3,1,0,0,0,0,2,2,0,0.5,Wales,-3.123227,58.53440699999999
160,Viv,Huzzey,1876-07-24,FALSE,"Varteg Hill, Monmouth",FALSE,Wing,Ireland v Wales,Limerick,1898-03-19,5,5,0,16,4,0,0,1,0,2,3,0,0.4,Wales,-3.098056,51.807778
161,Pussy,Jones,1874-12-10,FALSE,Cardiff,FALSE,Centre,Ireland v Wales,Limerick,1898-03-19,2,2,0,0,0,0,0,0,0,1,1,0,0.5,Wales,-3.17909,51.48158100000001
162,Jere,Blake,1875-01-01,TRUE,Cardiff,FALSE,Forward,Wales v England,Swansea,1899-01-07,9,9,0,0,0,0,0,0,0,6,3,0,0.6666666666666666,Wales,-3.17909,51.48158100000001
163,Alfred,Brice,1871-09-23,FALSE,"Lower Weare, Somerset",FALSE,Forward,Wales v England,Swansea,1899-01-07,18,18,0,8,2,1,0,0,0,12,5,1,0.6666666666666666,Wales,-2.8515179,51.279278
164,Jehoida,Hodges,1876-07-15,FALSE,Risca,FALSE,Forward,Wales v England,Swansea,1899-01-07,23,23,0,18,6,0,0,0,0,17,5,1,0.7391304347826086,Wales,-71.41570449999999,41.8328524
165,Willie,Llewellyn,1878-01-01,FALSE,Tonypandy,FALSE,Wing,Wales v England,Swansea,1899-01-07,24,24,0,60,20,0,0,0,0,18,5,1,0.75,Wales,-3.458067,51.62435199999999
166,Will,Parker,1873-10-31,FALSE,Swansea,FALSE,Forward,Wales v England,Swansea,1899-01-07,2,2,0,0,0,0,0,0,0,1,1,0,0.5,Wales,-3.943645999999999,51.62144
167,Fred,Scrine,1877-03-26,FALSE,Swansea,FALSE,Forward,Wales v England,Swansea,1899-01-07,3,3,0,0,0,0,0,0,0,2,1,0,0.6666666666666666,Wales,-3.943645999999999,51.62144
168,Reg,Skrimshire,1878-01-30,FALSE,"Maesgwartha, Llanelly",FALSE,Centre,Wales v England,Swansea,1899-01-07,6,6,0,3,1,0,0,0,0,1,3,2,0.16666666666666666,Wales,-3.1089604,51.82123439999999
169,George,Davies,1875-12-25,FALSE,Llandeilo,FALSE,Centre,England v Wales,Gloucester,1900-01-06,9,9,0,11,1,4,0,0,0,8,1,0,0.8888888888888888,Wales,-3.99143,51.88469
170,Louis,Phillips,1878-02-24,FALSE,Newport,FALSE,Scrum-half,England v Wales,Gloucester,1900-01-06,4,4,0,0,0,0,0,0,0,3,1,0,0.75,Wales,-94.1043876,37.5278234
171,Dan,Rees,1876-02-27,FALSE,Swansea,FALSE,Centre,England v Wales,Gloucester,1900-01-06,5,5,0,0,0,0,0,0,0,4,1,0,0.8,Wales,-3.943645999999999,51.62144
172,Robert,Thomas,1870-12-23,FALSE,Morriston,FALSE,Forward,England v Wales,Gloucester,1900-01-06,4,4,0,0,0,0,0,0,0,4,0,0,1,Wales,-82.43809700000001,29.2814888
173,Billy,Trew,1879-03-12,FALSE,Swansea,FALSE,Centre,England v Wales,Gloucester,1900-01-06,29,29,0,39,11,1,0,1,0,25,4,0,0.8620689655172413,Wales,-3.943645999999999,51.62144
174,Buller,Williams,1873-05-02,FALSE,"Limehouse, Middx",FALSE,Forward,England v Wales,Gloucester,1900-01-06,4,4,0,6,2,0,0,0,0,4,0,0,1,Wales,-0.0366652,51.5110598
175,George,Dobson,1873-05-28,FALSE,Eglwysilan,FALSE,Forward,Wales v Scotland,Swansea,1900-01-27,1,1,0,0,0,0,0,0,0,1,0,0,1,Wales,-3.2178724,51.6604465
176,Bala,Jones,1874-11-27,FALSE,Aberavon,FALSE,Scrum-half,Wales v England,Cardiff,1901-01-05,1,1,0,0,0,0,0,0,0,1,0,0,1,Wales,-3.804523699999999,51.6034701
177,Rusty,Gabe,1880-06-22,FALSE,Llangennech,FALSE,Centre,Wales v Ireland,Swansea,1901-03-16,28,28,0,36,12,0,0,0,0,21,6,1,0.75,Wales,-4.083864,51.69616200000001
178,Bob,Jones,1875-08-30,FALSE,Pontypridd,FALSE,Forward,Wales v Ireland,Swansea,1901-03-16,1,1,0,0,0,0,0,0,0,1,0,0,1,Wales,-3.342314,51.60077399999999
179,Dick,Jones,1878-11-27,FALSE,Swansea,FALSE,Fly-half,Wales v Ireland,Swansea,1901-03-16,15,15,0,9,3,0,0,0,0,12,2,1,0.8,Wales,-3.943645999999999,51.62144
180,Dicky,Owen,1876-11-17,FALSE,Llandore,FALSE,Scrum-half,Wales v Ireland,Swansea,1901-03-16,35,35,0,6,2,0,0,0,0,27,7,1,0.7714285714285715,Wales,-3.9369162,51.6412925
181,Boxer,Harding,1878-08-08,FALSE,"Market Rasen, Lincs",FALSE,Forward,England v Wales,Blackheath,1902-01-11,27,27,0,8,1,1,1,0,0,18,7,2,0.6666666666666666,Wales,-0.333285,53.387762
182,Dai,Jones,1881-05-16,FALSE,Tynewydd,FALSE,Forward,England v Wales,Blackheath,1902-01-11,13,13,0,0,0,0,0,0,0,11,2,0,0.8461538461538461,Wales,-3.54632,51.67909299999999
183,Strand,Jones,1877-12-02,FALSE,Caio,FALSE,Fullback,England v Wales,Blackheath,1902-01-11,5,5,0,11,0,4,1,0,0,4,1,0,0.8,Wales,-96.9507718,32.8448702
184,Will,Joseph,1877-05-08,FALSE,Morriston,FALSE,Forward,England v Wales,Blackheath,1902-01-11,16,16,0,0,0,0,0,0,0,12,3,1,0.75,Wales,-82.43809700000001,29.2814888
185,Teddy,Morgan,1880-05-22,FALSE,Aberdare,FALSE,Wing,England v Wales,Blackheath,1902-01-11,20,20,0,45,15,0,0,0,0,15,4,1,0.75,Wales,-3.451816,51.716154
186,Will,Osborne,1875-06-11,FALSE,Llanwonno,FALSE,Forward,England v Wales,Blackheath,1902-01-11,6,6,0,3,1,0,0,0,0,5,1,0,0.8333333333333334,Wales,-3.402958,51.65043499999999
187,Danny,Walters,1875-05-23,FALSE,Pembrey,FALSE,Forward,England v Wales,Blackheath,1902-01-11,1,1,0,0,0,0,0,0,0,1,0,0,1,Wales,-4.286182999999999,51.69157300000001
188,Harry,Jones,1878-06-10,FALSE,Nottage,FALSE,Forward,Wales v Scotland,Cardiff,1902-02-01,2,2,0,0,0,0,0,0,0,2,0,0,1,Wales,-87.629718,41.882436
189,Fred,Jowett,1879-11-02,FALSE,Swansea,FALSE,Wing,Wales v England,Swansea,1903-01-10,1,1,0,0,0,0,0,0,0,1,0,0,1,Wales,-3.943645999999999,51.62144
190,Twyber,Travers,1877-06-09,FALSE,Newport,FALSE,Hooker,Wales v England,Swansea,1903-01-10,25,25,0,3,1,0,0,0,0,21,4,0,0.84,Wales,-94.1043876,37.5278234
191,Willie,Arnold,1881-07-07,FALSE,Morriston,FALSE,Wing,Scotland v Wales,Inverleith,1903-02-07,1,1,0,0,0,0,0,0,0,0,1,0,0,Wales,-82.43809700000001,29.2814888
192,Bert,Winfield,1878-05-05,FALSE,Nottingham,FALSE,Fullback,Wales v Ireland,Cardiff,1903-03-14,15,15,0,50,0,14,6,0,1,11,3,1,0.7333333333333333,Wales,-1.1581086,52.95478319999999
193,Jack,Evans,1875-05-26,FALSE,Blaina,FALSE,Forward,England v Wales,Leicester,1904-01-09,1,1,0,0,0,0,0,0,0,0,0,1,0,Wales,-3.159627,51.766823
194,David,Thomas,1879-03-15,FALSE,Dunvant,FALSE,Forward,England v Wales,Leicester,1904-01-09,10,10,0,0,0,0,0,0,0,7,2,1,0.7,Wales,-4.033764,51.62486999999999
195,David,Davies,1875-10-27,FALSE,Tonna,FALSE,Forward,Wales v Scotland,Swansea,1904-02-06,1,1,0,0,0,0,0,0,0,1,0,0,1,Wales,-86.7824369,36.0315987
196,Billy,O'Neil,1878-06-05,FALSE,Cardiff,FALSE,Forward,Wales v Scotland,Swansea,1904-02-06,11,11,0,0,0,0,0,0,0,10,1,0,0.9090909090909091,Wales,-3.17909,51.48158100000001
197,Cliff,Pritchard,1881-10-01,FALSE,Pontypool,FALSE,Centre,Wales v Scotland,Swansea,1904-02-06,5,5,0,6,2,0,0,0,0,4,1,0,0.8,Wales,-78.62753769999999,44.1002714
198,Beddoe,Thomas-Maynard,1878-03-21,FALSE,Upper Cwmbran,FALSE,Forward,Wales v Scotland,Swansea,1904-02-06,6,6,0,0,0,0,0,0,0,5,1,0,0.8333333333333334,Wales,-3.0465772,51.67036359999999
199,Harry,Watkins,1875-09-10,FALSE,Trecastle,FALSE,Forward,Wales v Scotland,Swansea,1904-02-06,6,6,0,3,1,0,0,0,0,5,1,0,0.8333333333333334,Wales,-3.629663,51.949281
200,Sid,Bevan,1877-05-02,FALSE,Morriston,FALSE,Forward,Ireland v Wales,Belfast,1904-03-12,5,5,0,0,0,0,0,0,0,3,2,0,0.6,Wales,-82.43809700000001,29.2814888
201,Howell,Jones,1882-04-05,FALSE,Pontneddfechan,FALSE,Forward,Ireland v Wales,Belfast,1904-03-12,1,1,0,0,0,0,0,0,0,0,1,0,0,Wales,-3.592109,51.75706599999999
202,Charlie,Pritchard,1882-09-30,FALSE,Newport,FALSE,Forward,Ireland v Wales,Belfast,1904-03-12,14,14,0,3,1,0,0,0,0,9,5,0,0.6428571428571429,Wales,-94.1043876,37.5278234
203,Windham,Jones,1879-01-14,FALSE,Loughor,FALSE,Halfback,Wales v Ireland,Swansea,1905-03-11,1,1,0,3,1,0,0,0,0,1,0,0,1,Wales,-4.067286,51.665095
204,Jack,Williams,1882-11-18,FALSE,Scethrog,FALSE,Forward,Wales v Ireland,Swansea,1905-03-11,5,5,0,0,0,0,0,0,0,3,2,0,0.6,Wales,-3.301425,51.9170609
205,Percy,Bush,1879-06-23,FALSE,Cardiff,FALSE,Fly-half,Australia v Great Britain,Sydney,1904-07-02,12,12,0,40,4,2,0,5,1,10,2,0,0.8333333333333334,Wales,-3.17909,51.48158100000001
206,Hop,Maddock,NA,TRUE,Margam,FALSE,Wing,England v Wales,Richmond,1906-01-13,6,6,0,18,6,0,0,0,0,4,2,0,0.6666666666666666,Wales,-3.7011936,51.5467364
207,Reggie,Gibbs,1882-05-07,FALSE,Cardiff,FALSE,Wing,Wales v Scotland,Cardiff,1906-02-03,18,18,0,60,18,3,0,0,0,13,4,1,0.7222222222222222,Wales,-3.17909,51.48158100000001
208,Tom,Evans,1882-12-31,FALSE,Llandybie,FALSE,Flanker,Ireland v Wales,Belfast,1906-03-10,18,18,0,3,1,0,0,0,0,15,3,0,0.8333333333333334,Wales,-4.007789,51.8208259
209,Jack,Powell,1882-09-14,FALSE,Merthyr Tydfil,FALSE,Forward,Ireland v Wales,Belfast,1906-03-10,1,1,0,0,0,0,0,0,0,0,1,0,0,Wales,-3.381646,51.74872999999999
210,Dai,Westacott,1882-10-10,FALSE,Cardiff,FALSE,Forward,Ireland v Wales,Belfast,1906-03-10,1,1,0,0,0,0,0,0,0,0,1,0,0,Wales,-3.17909,51.48158100000001
211,John,Dyke,1884-06-20,FALSE,Narberth,FALSE,Fullback,Wales v South Africa,Swansea,1906-12-01,1,1,0,0,0,0,0,0,0,0,1,0,0,Wales,-75.26046,40.0084456
212,Jack,Jenkins,1880-04-19,FALSE,"Cwm Dows, Newbridge",FALSE,Forward,Wales v South Africa,Swansea,1906-12-01,1,1,0,0,0,0,0,0,0,0,1,0,0,Wales,-3.144116,51.665206
213,Dick,Thomas,1880-10-14,FALSE,"Ferndale, Rhondda",FALSE,Forward,Wales v South Africa,Swansea,1906-12-01,4,4,0,0,0,0,0,0,0,3,1,0,0.75,Wales,-3.448638,51.662619
214,Johnny,Williams,1882-01-03,FALSE,Whitchurch,FALSE,Wing,Wales v South Africa,Swansea,1906-12-01,19,19,0,51,17,0,0,0,0,15,3,1,0.7894736842105263,Wales,-2.682045,52.968716
215,John Alf,Brown,1881-01-10,FALSE,Cardiff,FALSE,Forward,Wales v England,Swansea,1907-01-12,7,7,0,3,1,0,0,0,0,6,1,0,0.8571428571428571,Wales,-3.17909,51.48158100000001
216,Bailey,Davies,1884-12-03,FALSE,Llanwenog,FALSE,Fullback,Wales v England,Swansea,1907-01-12,1,1,0,0,0,0,0,0,0,1,0,0,1,Wales,-4.19966,52.086991
217,Billy,Dowell,1885-05-21,FALSE,Pontypool,FALSE,Forward,Wales v England,Swansea,1907-01-12,7,7,0,0,0,0,0,0,0,6,1,0,0.8571428571428571,Wales,-78.62753769999999,44.1002714
218,Jack,Evans,1881-04-09,FALSE,Llanybyther,FALSE,Centre,Wales v England,Swansea,1907-01-12,3,3,0,0,0,0,0,0,0,2,1,0,0.6666666666666666,Wales,-4.157826,52.07488499999999
219,James,Watts,1877-09-24,FALSE,"New Dock, Llanelly",FALSE,Forward,Wales v England,Swansea,1907-01-12,11,11,0,6,2,0,0,0,0,10,1,0,0.9090909090909091,Wales,-4.1578533,51.6690392
220,Jim,Webb,1882-11-23,FALSE,"Berry Hill, Glos",FALSE,Lock,Scotland v Wales,Inverleith,1907-02-02,23,23,0,6,2,0,0,0,0,18,5,0,0.782608695652174,Wales,-2.618595,51.813878
221,Dickie,David,NA,TRUE,Cardiff,FALSE,Scrum-half,Wales v Ireland,Cardiff,1907-03-09,1,1,0,0,0,0,0,0,0,1,0,0,1,Wales,-3.17909,51.48158100000001
222,Ponty,Jones,1881-12-10,FALSE,Pontymoile,FALSE,Wing,Wales v Ireland,Cardiff,1907-03-09,1,1,0,3,1,0,0,0,0,1,0,0,1,Wales,-3.0488798,51.6914016
223,Tommy,Vile,1882-09-06,FALSE,Newport,FALSE,Scrum-half,Australia v Great Britain,Brisbane,1904-07-23,11,11,0,0,0,0,0,0,0,6,5,0,0.5454545454545454,Wales,-94.1043876,37.5278234
224,George,Hayward,1888-04-29,FALSE,Skewen,FALSE,Forward,Wales v Scotland,Swansea,1908-02-01,5,5,0,0,0,0,0,0,0,5,0,0,1,Wales,-3.841789,51.660932
225,Phil,Hopkins,1880-01-31,FALSE,Craig Cefn Parc,FALSE,Wing,Wales v Australia,Cardiff,1908-12-12,4,4,0,9,3,0,0,0,0,3,1,0,0.75,Wales,-3.9156779,51.709251
226,Jack,Jones,1886-03-02,FALSE,Pontymoile,FALSE,Centre,New Zealand v Anglo-Welsh,Dunedin,1908-06-06,20,20,0,25,7,0,0,1,0,12,7,1,0.6,Wales,-3.0488798,51.6914016
227,Ivor,Morgan,1884-08-16,FALSE,Tancredston,FALSE,Flanker,Wales v Australia,Cardiff,1908-12-12,13,13,0,18,6,0,0,0,0,12,1,0,0.9230769230769231,Wales,NA,NA
228,Phil,Waller,1889-01-28,FALSE,"Odd Down, Bath",FALSE,Forward,Wales v Australia,Cardiff,1908-12-12,9,9,0,0,0,0,0,0,0,7,2,0,0.7777777777777778,Wales,-2.3821659,51.3589139
229,Jack,Bancroft,1879-10-12,FALSE,Swansea,FALSE,Fullback,Wales v England,Cardiff,1909-01-16,18,18,0,88,0,38,4,0,0,14,4,0,0.7777777777777778,Wales,-3.943645999999999,51.62144
230,Jake,Blackmore,1883-03-10,FALSE,Abertillery,FALSE,Forward,Wales v England,Cardiff,1909-01-16,1,1,0,0,0,0,0,0,0,1,0,0,1,Wales,-3.135369,51.732161
231,Mel,Baker,1885-01-12,FALSE,"Redwick, Monmouth",FALSE,Wing,Scotland v Wales,Inverleith,1909-02-06,4,4,0,12,4,0,0,0,0,3,1,0,0.75,Wales,-2.849298,51.5527349
232,Thomas,Lloyd,NA,NA,"Codoxton, Neath",FALSE,Forward,France v Wales,Colombes,1909-02-23,7,7,0,0,0,0,0,0,0,6,1,0,0.8571428571428571,Wales,-3.799281,51.673094
233,Rees,Thomas,1882-05-30,FALSE,Caldicot,FALSE,Forward,France v Wales,Colombes,1909-02-23,8,8,0,3,1,0,0,0,0,5,3,0,0.625,Wales,-2.750868,51.591518
234,Ben,Gronow,1887-03-10,FALSE,Bridgend,FALSE,Forward,Wales v France,Swansea,1910-01-01,4,4,0,3,1,0,0,0,0,3,1,0,0.75,Wales,-3.576945,51.504286
235,Joe,Pullman,1876-06-19,FALSE,Cardiff,FALSE,Forward,Wales v France,Swansea,1910-01-01,1,1,0,0,0,0,0,0,0,1,0,0,1,Wales,-3.17909,51.48158100000001
236,Harry,Jarman,1883-03-20,FALSE,Talywain,FALSE,Forward,England v Wales,Twickenham,1910-01-15,7,7,0,0,0,0,0,0,0,4,3,0,0.5714285714285714,Wales,-3.071557,51.730524
237,Joe,Pugsley,1885-05-10,FALSE,Swansea,FALSE,Hooker,England v Wales,Twickenham,1910-01-15,7,7,0,6,2,0,0,0,0,6,1,0,0.8571428571428571,Wales,-3.943645999999999,51.62144
238,Ernie,Jenkins,1879-09-20,FALSE,Llanfrechfa,FALSE,Flanker,Wales v Scotland,Cardiff,1910-02-05,2,2,0,0,0,0,0,0,0,2,0,0,1,Wales,-2.987885,51.637429
239,Willie,Morgan,1884-01-09,FALSE,Aberdare,FALSE,Halfback,New Zealand v Anglo-Welsh,Wellington,1908-06-27,3,3,0,0,0,0,0,0,0,1,1,1,0.3333333333333333,Wales,-3.451816,51.716154
240,Billy,Spiller,1886-07-08,FALSE,"St Fagans, Cardiff",FALSE,Centre,Wales v Scotland,Cardiff,1910-02-05,10,10,0,16,4,0,0,1,0,7,3,0,0.7,Wales,-3.2685981,51.487941
241,Louis,Dyke,1887-12-24,FALSE,Penarth,FALSE,Centre,Ireland v Wales,Lansdowne Road,1910-03-12,4,4,0,7,1,2,0,0,0,4,0,0,1,Wales,-3.173507,51.438798
242,Fred,Birt,1886-11-15,FALSE,Newport,FALSE,Centre,Wales v England,Swansea,1911-01-21,7,7,0,7,0,0,1,1,0,3,4,0,0.42857142857142855,Wales,-94.1043876,37.5278234
243,Percy,Coldrick,1888-11-01,FALSE,Caerleon,FALSE,Lock,Wales v England,Swansea,1911-01-21,6,6,0,0,0,0,0,0,0,5,1,0,0.8333333333333334,Wales,-2.9562689,51.610283
244,Bill,Perry,1884-09-22,FALSE,Neath,FALSE,Lock,Wales v England,Swansea,1911-01-21,1,1,0,0,0,0,0,0,0,1,0,0,1,Wales,-3.805476,51.656991
245,Jim,Birch,1889-12-30,FALSE,"St Andrew's, Northamp",FALSE,Prop,Scotland v Wales,Inverleith,1911-02-04,2,2,0,0,0,0,0,0,0,2,0,0,1,Wales,-0.8742259,52.2375838
246,William,Evans,1882-03-23,FALSE,Brynmawr,FALSE,Forward,Wales v Ireland,Cardiff,1911-03-11,1,1,0,0,0,0,0,0,0,1,0,0,1,Wales,-75.3144595,40.0278802
247,Ewan,Davies,1887-06-23,FALSE,Cardiff,FALSE,Wing,England v Wales,Twickenham,1912-01-20,2,2,0,6,2,0,0,0,0,1,1,0,0.5,Wales,-3.17909,51.48158100000001
248,Howel,Davies,1885-03-11,FALSE,Skewen,FALSE,Hooker,England v Wales,Twickenham,1912-01-20,2,2,0,0,0,0,0,0,0,1,1,0,0.5,Wales,-3.841789,51.660932
249,Clem,Lewis,1890-06-22,FALSE,Newton Nottage,FALSE,Fly-half,England v Wales,Twickenham,1912-01-20,11,11,0,19,3,3,0,1,0,7,4,0,0.6363636363636364,Wales,-3.6873522,51.4869415
250,Glyn,Stephens,1891-11-29,FALSE,Rhydding,FALSE,Prop,England v Wales,Twickenham,1912-01-20,10,10,0,0,0,0,0,0,0,5,5,0,0.5,Wales,-1.8009597,53.9240299
251,Len,Trump,1887-04-23,FALSE,Newport,FALSE,Prop,England v Wales,Twickenham,1912-01-20,4,4,0,0,0,0,0,0,0,2,2,0,0.5,Wales,-94.1043876,37.5278234
252,Harry,Uzzell,1883-01-06,FALSE,"Shirehampton, Glos",FALSE,Hooker,England v Wales,Twickenham,1912-01-20,15,15,0,6,2,0,0,0,0,11,4,0,0.7333333333333333,Wales,-2.5915505,51.4600794
253,Willie,Davies,1890-12-27,FALSE,Aberavon,FALSE,Centre,Wales v Scotland,Swansea,1912-02-03,2,2,0,3,1,0,0,0,0,1,1,0,0.5,Wales,-3.804523699999999,51.6034701
254,George,Hirst,1890-05-05,FALSE,Dowlais,FALSE,Wing,Wales v Scotland,Swansea,1912-02-03,6,6,0,17,3,0,0,2,0,5,1,0,0.8333333333333334,Wales,-3.347789,51.76181099999999
255,Reggie,Plummer,1888-12-29,FALSE,Newport,FALSE,Wing,Wales v Scotland,Swansea,1912-02-03,5,5,0,6,2,0,0,0,0,2,3,0,0.4,Wales,-94.1043876,37.5278234
256,Frank,Hawkins,1883-04-01,FALSE,Wiveliscombe,FALSE,Flanker,Ireland v Wales,Belfast,1912-03-09,2,2,0,0,0,0,0,0,0,1,1,0,0.5,Wales,-3.313501,51.043574
257,Harry,Hyam,1885-06-04,FALSE,Swansea,FALSE,Prop,Ireland v Wales,Belfast,1912-03-09,2,2,0,0,0,0,0,0,0,1,1,0,0.5,Wales,-3.943645999999999,51.62144
258,Billy,Jenkins,1885-05-18,FALSE,Cardiff,FALSE,Flanker,Ireland v Wales,Belfast,1912-03-09,4,4,0,0,0,0,0,0,0,3,1,0,0.75,Wales,-3.17909,51.48158100000001
259,Brin,Lewis,1891-01-04,FALSE,Pontardawe,FALSE,Wing,Ireland v Wales,Belfast,1912-03-09,2,2,0,6,2,0,0,0,0,1,1,0,0.5,Wales,-3.853214999999999,51.72043499999999
260,Walter,Martin,1883-05-14,FALSE,"Woodford, Essex",FALSE,Fly-half,Ireland v Wales,Belfast,1912-03-09,3,3,0,0,0,0,0,0,0,1,2,0,0.3333333333333333,Wales,0.0325025,51.6041751
261,Gus,Merry,1887-11-24,FALSE,Newport,FALSE,Hooker,Ireland v Wales,Belfast,1912-03-09,2,2,0,0,0,0,0,0,0,1,1,0,0.5,Wales,-94.1043876,37.5278234
262,Tom,Williams,1887-01-01,TRUE,Dunvant,FALSE,Flanker,Ireland v Wales,Belfast,1912-03-09,6,6,0,3,1,0,0,0,0,4,2,0,0.6666666666666666,Wales,-4.033764,51.62486999999999
263,Harold,Thomas,1883-08-17,FALSE,Swansea,FALSE,Fullback,Wales v France,Newport,1912-03-25,1,1,0,2,0,1,0,0,0,1,0,0,1,Wales,-3.943645999999999,51.62144
264,Frank,Andrews,1886-02-11,FALSE,"Hoarwithy, Hereford",FALSE,Back-row,Wales v South Africa,Cardiff,1912-12-14,4,4,0,0,0,0,0,0,0,2,2,0,0.5,Wales,-2.660497,51.9614689
265,Billy,Geen,1891-03-14,FALSE,Newport,FALSE,Wing,Wales v South Africa,Cardiff,1912-12-14,3,3,0,0,0,0,0,0,0,1,2,0,0.3333333333333333,Wales,-94.1043876,37.5278234
266,Bert,Hollingdale,1889-04-09,FALSE,"Cockett, Swansea",FALSE,No. 8,Wales v South Africa,Cardiff,1912-12-14,2,2,0,0,0,0,0,0,0,0,2,0,0,Wales,-3.98227,51.632323
267,Percy,Jones,1887-03-23,FALSE,Pontypridd,FALSE,Lock,Wales v South Africa,Cardiff,1912-12-14,8,8,0,0,0,0,0,0,0,5,3,0,0.625,Wales,-3.342314,51.60077399999999
268,Johnnie,Morgan,1892-10-23,FALSE,Alejandra,FALSE,Flanker,Wales v South Africa,Cardiff,1912-12-14,2,2,0,0,0,0,0,0,0,0,2,0,0,Wales,-117.0805086,32.6873727
269,Fred,Perrett,1891-05-09,FALSE,Briton Ferry,FALSE,Prop,Wales v South Africa,Cardiff,1912-12-14,5,5,0,0,0,0,0,0,0,3,2,0,0.6,Wales,-3.824315,51.632119
270,Horace,Thomas,1890-07-28,FALSE,Pentyrch,FALSE,Fly-half,Wales v South Africa,Cardiff,1912-12-14,2,2,0,0,0,0,0,0,0,0,2,0,0,Wales,-3.294356,51.528842
271,Harry,Wetter,1882-02-03,FALSE,"Battersea, Surrey",FALSE,Prop,Wales v South Africa,Cardiff,1912-12-14,2,2,0,0,0,0,0,0,0,0,2,0,0,Wales,-0.1702828,51.4753497
272,Bobbie,Williams,1885-04-12,FALSE,Tongwynlais,FALSE,Fullback,Wales v South Africa,Cardiff,1912-12-14,4,4,0,0,0,0,0,0,0,2,2,0,0.5,Wales,-3.2516673,51.5320826
273,Alban,Davies,1885-09-05,FALSE,Llansantffraid,FALSE,Prop,Scotland v Wales,Inverleith,1913-02-01,7,7,0,6,2,0,0,0,0,6,1,0,0.8571428571428571,Wales,-3.1593649,52.77309690000001
274,Tuan,Jones,1883-11-23,FALSE,Pontymoile,FALSE,Halfback,New Zealand v Anglo-Welsh,Wellington,1908-06-27,3,3,0,3,1,0,0,0,0,1,1,1,0.3333333333333333,Wales,-3.0488798,51.6914016
275,Howell,Lewis,1888-05-24,FALSE,Cwmtwrch,FALSE,Wing,Scotland v Wales,Inverleith,1913-02-01,4,4,0,0,0,0,0,0,0,3,1,0,0.75,Wales,-3.800599,51.784517
276,Bobby,Lloyd,1888-07-12,FALSE,Bangor,FALSE,Scrum-half,Scotland v Wales,Inverleith,1913-02-01,7,7,0,0,0,0,0,0,0,6,1,0,0.8571428571428571,Wales,-68.7712257,44.8016128
277,Rees,Richards,1886-05-03,FALSE,Lower Michaelstone,FALSE,Forward,Scotland v Wales,Inverleith,1913-02-01,3,3,0,0,0,0,0,0,0,3,0,0,1,Wales,-3.2225284,51.4550584
278,Glyn,Gething,1892-07-16,FALSE,Neath,FALSE,Fullback,France v Wales,Parc des Princes,1913-02-27,1,1,0,0,0,0,0,0,0,1,0,0,1,Wales,-3.805476,51.656991
279,Mark,Lewis,1889-02-18,FALSE,Ystrad,FALSE,Wing,France v Wales,Parc des Princes,1913-02-27,1,1,0,0,0,0,0,0,0,1,0,0,1,Wales,-3.462833,51.644183
280,William,Evans,1890-02-08,FALSE,Llwynypia,FALSE,Centre,England v Wales,Twickenham,1914-01-17,4,4,0,3,1,0,0,0,0,3,1,0,0.75,Wales,-3.454214,51.632965
281,Jack,Jones,1888-11-27,FALSE,Rock,FALSE,Prop,England v Wales,Twickenham,1914-01-17,4,4,0,3,1,0,0,0,0,3,1,0,0.75,Wales,-95.724553,37.207906
282,Edgar,Morgan,1882-03-27,FALSE,Pontardawe,FALSE,No. 8,New Zealand v Anglo-Welsh,Wellington,1908-06-27,6,6,0,0,0,0,0,0,0,3,2,1,0.5,Wales,-3.853214999999999,51.72043499999999
283,David,Watts,1886-03-14,FALSE,"Cwmdu, Maesteg",FALSE,Lock,England v Wales,Twickenham,1914-01-17,4,4,0,0,0,0,0,0,0,3,1,0,0.75,Wales,-3.624644,51.604587
284,William,Watts,1890-05-16,FALSE,Llanelly,FALSE,Centre,England v Wales,Twickenham,1914-01-17,1,1,0,3,1,0,0,0,0,0,1,0,0,Wales,-3.114332,51.824049
285,Ivor,Davies,1892-04-06,FALSE,Carmarthen,FALSE,Wing,Wales v Scotland,Cardiff,1914-02-07,3,3,0,6,2,0,0,0,0,3,0,0,1,Wales,-4.312131,51.85762
286,Jack,Wetter,1887-12-29,FALSE,Newport,FALSE,Fly-half,Wales v Scotland,Cardiff,1914-02-07,10,10,0,14,4,1,0,0,0,6,4,0,0.6,Wales,-94.1043876,37.5278234
287,Ianto,Davies,1892-09-06,FALSE,Maesteg,FALSE,Fullback,Wales v New Zealand Army,Swansea,1919-04-21,1,1,0,0,0,0,0,0,0,0,1,0,0,Wales,-3.660466,51.60856200000001
288,Ike,Fowler,1894-08-27,FALSE,Pantyffynnon,FALSE,Scrum-half,Wales v New Zealand Army,Swansea,1919-04-21,1,1,0,0,0,0,0,0,0,0,1,0,0,Wales,-3.985494,51.779145
289,Gwynn,Francis,1896-02-02,FALSE,Gorseinon,FALSE,Lock,Wales v New Zealand Army,Swansea,1919-04-21,2,2,0,0,0,0,0,0,0,0,2,0,0,Wales,-4.041545,51.669543
290,Bill,Havard,1889-10-23,FALSE,Maescar,FALSE,Prop,Wales v New Zealand Army,Swansea,1919-04-21,1,1,0,0,0,0,0,0,0,0,1,0,0,Wales,-3.5989495,51.9984657
291,Jim,Jones,1893-10-04,FALSE,Abergwynfi,FALSE,Flanker,Wales v New Zealand Army,Swansea,1919-04-21,6,6,0,0,0,0,0,0,0,3,3,0,0.5,Wales,-3.600474999999999,51.653032
292,Bill,Morris,1894-01-20,FALSE,Cwmtillery,FALSE,Prop,Wales v New Zealand Army,Swansea,1919-04-21,3,3,0,0,0,0,0,0,0,2,1,0,0.6666666666666666,Wales,-3.131627,51.74494900000001
293,Trevor,Nicholas,1894-01-07,FALSE,Sudbrook,FALSE,Wing,Wales v New Zealand Army,Swansea,1919-04-21,1,1,0,0,0,0,0,0,0,0,1,0,0,Wales,-76.7262014,39.3588704
294,Tom,Parker,1891-03-29,FALSE,Llansamlet,FALSE,Flanker,Wales v New Zealand Army,Swansea,1919-04-21,15,15,0,6,2,0,0,0,0,8,6,1,0.5333333333333333,Wales,-3.900516,51.664173
295,Aaron,Rees,1886-08-02,FALSE,Maesteg,FALSE,Flanker,Wales v New Zealand Army,Swansea,1919-04-21,1,1,0,0,0,0,0,0,0,0,1,0,0,Wales,-3.660466,51.60856200000001
296,Evan,Rees,1893-10-29,FALSE,"Cwmavon, Glamorgan",FALSE,Centre,Wales v New Zealand Army,Swansea,1919-04-21,1,1,0,0,0,0,0,0,0,0,1,0,0,Wales,-3.766471,51.614044
297,Jerry,Shea,1892-08-12,FALSE,Newport,FALSE,Centre,Wales v New Zealand Army,Swansea,1919-04-21,4,4,0,19,1,1,2,2,0,1,3,0,0.25,Wales,-94.1043876,37.5278234
298,Melbourne,Thomas,1896-06-11,FALSE,Nantymoel,FALSE,Wing,Wales v New Zealand Army,Swansea,1919-04-21,6,6,0,6,2,0,0,0,0,3,3,0,0.5,Wales,-3.54221,51.626122
299,Jack,Whitfield,1892-03-23,FALSE,Newport,FALSE,Lock,Wales v New Zealand Army,Swansea,1919-04-21,12,12,0,15,5,0,0,0,0,6,5,1,0.5,Wales,-94.1043876,37.5278234
300,Ben,Beynon,1894-03-14,FALSE,Swansea,FALSE,Fly-half,Wales v England,Swansea,1920-01-17,2,2,0,0,0,0,0,0,0,1,1,0,0.5,Wales,-3.943645999999999,51.62144
301,Brinley,Evans,1894-01-21,FALSE,Felinfoel,FALSE,Centre,Wales v England,Swansea,1920-01-17,5,5,0,0,0,0,0,0,0,4,0,1,0.8,Wales,-4.1448716,51.6987915
302,Albert,Jenkins,1895-03-11,FALSE,Llanelly,FALSE,Centre,Wales v England,Swansea,1920-01-17,14,14,0,47,4,7,3,3,0,7,7,0,0.5,Wales,-3.114332,51.824049
303,Charles,Jones,1893-06-18,FALSE,Cardiff,FALSE,Flanker,Wales v England,Swansea,1920-01-17,3,3,0,0,0,0,0,0,0,2,1,0,0.6666666666666666,Wales,-3.17909,51.48158100000001
304,Steve,Morris,1896-06-10,FALSE,Pontywaun,FALSE,Flanker,Wales v England,Swansea,1920-01-17,19,19,0,0,0,0,0,0,0,9,9,1,0.47368421052631576,Wales,-3.12778,51.627045
305,George,Oliver,1891-04-03,FALSE,Pontypool,FALSE,Flanker,Wales v England,Swansea,1920-01-17,4,4,0,0,0,0,0,0,0,3,1,0,0.75,Wales,-78.62753769999999,44.1002714
306,Wick,Powell,1892-09-13,FALSE,Cardiff,FALSE,Wing,Wales v England,Swansea,1920-01-17,4,4,0,6,2,0,0,0,0,3,1,0,0.75,Wales,-3.17909,51.48158100000001
307,Joe,Rees,1893-07-27,FALSE,Glanaman,FALSE,Fullback,Wales v England,Swansea,1920-01-17,12,12,0,7,0,2,1,0,0,6,6,0,0.5,Wales,-3.922671,51.805452
308,Jack,Williams,1888-08-07,FALSE,Garnfach,FALSE,Prop,Wales v England,Swansea,1920-01-17,7,7,0,3,1,0,0,0,0,5,2,0,0.7142857142857143,Wales,-4.127739,51.7757663
309,Brinley,Williams,1895-04-03,FALSE,Llanelly,FALSE,Wing,Scotland v Wales,Inverleith,1920-02-07,3,3,0,12,4,0,0,0,0,2,1,0,0.6666666666666666,Wales,-3.114332,51.824049
310,Dick,Huxtable,1890-10-13,FALSE,Swansea,FALSE,Flanker,France v Wales,Colombes,1920-02-17,2,2,0,0,0,0,0,0,0,2,0,0,1,Wales,-3.943645999999999,51.62144
311,Fred,Reeves,1892-07-12,FALSE,Cross Keys,FALSE,Scrum-half,France v Wales,Colombes,1920-02-17,3,3,0,0,0,0,0,0,0,2,1,0,0.6666666666666666,Wales,-90.29616449999999,38.8077911
312,Edgar,Morgan,1896-05-17,FALSE,Llanelly,FALSE,Flanker,Wales v Ireland,Cardiff,1920-03-13,4,4,0,0,0,0,0,0,0,2,2,0,0.5,Wales,-3.114332,51.824049
313,Len,Attewell,1895-12-31,FALSE,Newport,FALSE,Prop,England v Wales,Twickenham,1921-01-15,3,3,0,0,0,0,0,0,0,1,2,0,0.3333333333333333,Wales,-94.1043876,37.5278234
314,Dai,Edwards,1896-03-21,FALSE,Glynneath,FALSE,Lock,England v Wales,Twickenham,1921-01-15,1,1,0,0,0,0,0,0,0,0,1,0,0,Wales,-3.617823,51.74876
315,Wilf,Hodder,1896-05-06,FALSE,Abersychan,FALSE,Flanker,England v Wales,Twickenham,1921-01-15,3,3,0,3,1,0,0,0,0,1,2,0,0.3333333333333333,Wales,-3.0629,51.724084
316,Codger,Johnson,1893-10-29,FALSE,Cardiff,FALSE,Wing,England v Wales,Twickenham,1921-01-15,12,12,0,6,1,0,1,0,0,4,8,0,0.3333333333333333,Wales,-3.17909,51.48158100000001
317,Douglas,Marsden-Jones,1893-04-03,FALSE,Swansea,FALSE,Forward,England v Wales,Twickenham,1921-01-15,4,4,0,0,0,0,0,0,0,0,4,0,0,Wales,-3.943645999999999,51.62144
318,Johnny,Ring,1900-11-13,FALSE,Aberavon,FALSE,Wing,England v Wales,Twickenham,1921-01-15,1,1,0,3,1,0,0,0,0,0,1,0,0,Wales,-3.804523699999999,51.6034701
319,Docker,Winmill,1889-05-05,FALSE,Abertillery,FALSE,Prop,England v Wales,Twickenham,1921-01-15,4,4,0,0,0,0,0,0,0,2,2,0,0.5,Wales,-3.135369,51.732161
320,Paul,Baker-Jones,1894-12-27,FALSE,Newport,FALSE,Centre,Wales v Scotland,Swansea,1921-02-05,1,1,0,0,0,0,0,0,0,0,1,0,0,Wales,-94.1043876,37.5278234
321,William,Bowen,1897-12-06,FALSE,Swansea,FALSE,Fly-half,Wales v Scotland,Swansea,1921-02-05,6,6,0,6,2,0,0,0,0,4,1,1,0.6666666666666666,Wales,-3.943645999999999,51.62144
322,Frankie,Evans,1897-04-03,FALSE,Dafen,FALSE,Wing,Wales v Scotland,Swansea,1921-02-05,1,1,0,0,0,0,0,0,0,0,1,0,0,Wales,-4.1281625,51.6940995
323,Tom,Roberts,1897-01-30,FALSE,"Machen View, Risca",FALSE,Lock,Wales v Scotland,Swansea,1921-02-05,9,9,0,0,0,0,0,0,0,5,3,1,0.5555555555555556,Wales,-3.1020826,51.6093032
324,Harry,Davies,1899-04-19,FALSE,Llanelly,FALSE,Centre,Wales v France,Cardiff,1921-02-26,3,3,0,0,0,0,0,0,0,3,0,0,1,Wales,-3.114332,51.824049
325,Ossie,Male,1893-12-31,FALSE,Pontymister,FALSE,Fullback,Wales v France,Cardiff,1921-02-26,11,11,0,15,0,6,1,0,0,3,8,0,0.2727272727272727,Wales,-3.0857899,51.604287
326,Tudor,Williams,1898-12-23,FALSE,Cwarterbach,FALSE,Scrum-half,Wales v France,Cardiff,1921-02-26,1,1,0,0,0,0,0,0,0,1,0,0,1,Wales,-3.8312849,51.8217079
327,Ambrose,Baker,1897-04-29,FALSE,Pontarddulais,FALSE,Flanker,Ireland v Wales,Belfast,1921-03-12,5,5,0,3,1,0,0,0,0,2,3,0,0.4,Wales,-4.037071,51.712266
328,Archie,Brown,1890-11-02,FALSE,Cross Keys,FALSE,Scrum-half,Ireland v Wales,Belfast,1921-03-12,1,1,0,0,0,0,0,0,0,1,0,0,1,Wales,-90.29616449999999,38.8077911
329,Daph,Davies,1898-08-03,FALSE,Bridgend,FALSE,Centre,Ireland v Wales,Belfast,1921-03-12,2,2,0,0,0,0,0,0,0,1,1,0,0.5,Wales,-3.576945,51.504286
330,Jack,Prosser,1892-12-15,FALSE,Newport,FALSE,Prop,Ireland v Wales,Belfast,1921-03-12,1,1,0,0,0,0,0,0,0,1,0,0,1,Wales,-94.1043876,37.5278234
331,Will,Cummings,1892-03-20,FALSE,Cardiff,FALSE,No. 8,Wales v England,Cardiff,1922-01-21,4,4,0,3,1,0,0,0,0,3,0,1,0.75,Wales,-3.17909,51.48158100000001
332,Bobby,Delahay,1900-09-02,FALSE,Bridgend,FALSE,Scrum-half,Wales v England,Cardiff,1922-01-21,18,18,0,6,2,0,0,0,0,7,9,2,0.3888888888888889,Wales,-3.576945,51.504286
333,Islwyn,Evans,1898-12-25,FALSE,Llanelly,FALSE,Centre,Wales v England,Cardiff,1922-01-21,4,4,0,13,3,0,0,1,0,3,0,1,0.75,Wales,-3.114332,51.824049
334,Dai,Hiddlestone,1890-06-14,FALSE,Hendy,FALSE,Flanker,Wales v England,Cardiff,1922-01-21,5,5,0,3,1,0,0,0,0,3,1,1,0.6,Wales,-76.8449783,42.0787089
335,Tom,Jones,1894-12-13,FALSE,Pontnewydd,FALSE,Prop,Wales v England,Cardiff,1922-01-21,6,6,0,3,1,0,0,0,0,3,2,1,0.5,Wales,-3.0244219,51.6682984
336,Frank,Palmer,1896-06-26,FALSE,Swansea,FALSE,Wing,Wales v England,Cardiff,1922-01-21,3,3,0,3,1,0,0,0,0,2,0,1,0.6666666666666666,Wales,-3.943645999999999,51.62144
337,Cliff,Richards,1901-03-28,FALSE,Hafodyrynys,FALSE,Wing,Wales v England,Cardiff,1922-01-21,5,5,0,6,2,0,0,0,0,3,1,1,0.6,Wales,-3.118772,51.68351500000001
338,John,Stephens,1893-10-30,FALSE,Taliesin,FALSE,Flanker,Wales v England,Cardiff,1922-01-21,4,4,0,0,0,0,0,0,0,3,0,1,0.75,Wales,-90.070467,43.1410311
339,Fred,Samuel,1897-01-08,FALSE,Llanelly,FALSE,Fullback,Scotland v Wales,Inverleith,1922-02-04,3,3,0,4,0,2,0,0,0,2,0,1,0.6666666666666666,Wales,-3.114332,51.824049
340,Arthur,Cornish,1897-06-30,FALSE,Cardiff,FALSE,Centre,England v Wales,Twickenham,1923-01-20,10,10,0,7,1,0,0,1,0,3,6,1,0.3,Wales,-3.17909,51.48158100000001
341,Dai,Davies,1897-08-01,FALSE,Clydey,FALSE,Prop,England v Wales,Twickenham,1923-01-20,2,2,0,0,0,0,0,0,0,0,2,0,0,Wales,-4.551216,51.989669
342,Rowe,Harding,1901-09-10,FALSE,Llansamlet,FALSE,Wing,England v Wales,Twickenham,1923-01-20,20,20,0,15,5,0,0,0,0,6,12,2,0.3,Wales,-3.900516,51.664173
343,Gwilym,Michael,1892-07-08,FALSE,Ynysmeudwy,FALSE,Flanker,England v Wales,Twickenham,1923-01-20,3,3,0,3,1,0,0,0,0,1,2,0,0.3333333333333333,Wales,-3.830219,51.73439279999999
344,Gethin,Thomas,1897-04-24,FALSE,Llwynhendy,FALSE,Lock,England v Wales,Twickenham,1923-01-20,4,4,0,0,0,0,0,0,0,1,3,0,0.25,Wales,-4.1162768,51.6786796
345,Joe,Thompson,1902-12-22,FALSE,"Winterbourne, Glos",FALSE,No. 8,England v Wales,Twickenham,1923-01-20,1,1,0,0,0,0,0,0,0,0,1,0,0,Wales,-2.501044,51.52432
346,Lew,Jenkins,1894-11-08,FALSE,Eglwysilan,FALSE,Lock,Wales v Scotland,Cardiff,1923-02-03,2,2,0,0,0,0,0,0,0,1,1,0,0.5,Wales,-3.2178724,51.6604465
347,Dai,John,1902-03-01,FALSE,Loughor,FALSE,Fly-half,Wales v France,Swansea,1923-02-24,5,5,0,9,3,0,0,0,0,2,3,0,0.4,Wales,-4.067286,51.665095
348,Dan,Pascoe,1900-07-07,FALSE,Llanharan,FALSE,Flanker,Wales v France,Swansea,1923-02-24,2,2,0,0,0,0,0,0,0,1,1,0,0.5,Wales,-3.439496,51.53864799999999
349,Mapson,Williams,1891-04-05,FALSE,"Mackay, QLD",FALSE,No. 8,Wales v France,Swansea,1923-02-24,1,1,0,0,0,0,0,0,0,1,0,0,1,Wales,149.1821469,-21.1424956
350,Tom,Collins,1895-08-14,FALSE,Aberdare,FALSE,Centre,Ireland v Wales,Lansdowne Road,1923-03-10,1,1,0,0,0,0,0,0,0,0,1,0,0,Wales,-3.451816,51.716154
351,Stan,Davies,1895-04-23,FALSE,Ystrad,FALSE,Prop,Ireland v Wales,Lansdowne Road,1923-03-10,1,1,0,0,0,0,0,0,0,0,1,0,0,Wales,-3.462833,51.644183
352,John,Davies,1897-12-22,FALSE,Lower Michaelstone,FALSE,Flanker,Ireland v Wales,Lansdowne Road,1923-03-10,1,1,0,0,0,0,0,0,0,0,1,0,0,Wales,-3.2225284,51.4550584
353,Jack,Powell,1894-08-12,FALSE,Cardiff,FALSE,Wing,Ireland v Wales,Lansdowne Road,1923-03-10,1,1,0,4,0,0,0,1,0,0,1,0,0,Wales,-3.17909,51.48158100000001
354,William,Radford,1888-04-08,FALSE,Cardiff,FALSE,Flanker,Ireland v Wales,Lansdowne Road,1923-03-10,1,1,0,0,0,0,0,0,0,0,1,0,0,Wales,-3.17909,51.48158100000001
355,Tom,Richards,1895-10-13,FALSE,Maesteg,FALSE,No. 8,Ireland v Wales,Lansdowne Road,1923-03-10,1,1,0,0,0,0,0,0,0,0,1,0,0,Wales,-3.660466,51.60856200000001
356,Hunt,Davies,1896-11-11,FALSE,Aberavon,FALSE,Centre,Wales v England,Swansea,1924-01-19,1,1,0,0,0,0,0,0,0,0,1,0,0,Wales,-3.804523699999999,51.6034701
357,Candy,Evans,1903-11-18,FALSE,Abersychan,FALSE,Lock,Wales v England,Swansea,1924-01-19,3,3,0,0,0,0,0,0,0,1,2,0,0.3333333333333333,Wales,-3.0629,51.724084
358,Ivor,Jones,1901-12-10,FALSE,Loughor,FALSE,Flanker,Wales v England,Swansea,1924-01-19,21,21,0,15,1,6,0,0,0,5,15,1,0.23809523809523808,Wales,-4.067286,51.665095
359,Glyn,Morris,1901-08-04,FALSE,Burry Port,FALSE,Prop,Wales v England,Swansea,1924-01-19,2,2,0,0,0,0,0,0,0,0,2,0,0,Wales,-4.2561,51.683466
360,Bill,Ould,1899-05-06,FALSE,Glyncorrwg,FALSE,Lock,Wales v England,Swansea,1924-01-19,2,2,0,0,0,0,0,0,0,0,2,0,0,Wales,-3.628325,51.677721
361,Albert,Owen,1898-07-31,FALSE,Gurnos Cross,FALSE,Fly-half,Wales v England,Swansea,1924-01-19,1,1,0,3,1,0,0,0,0,0,1,0,0,Wales,-3.39218,51.761551
362,Charlie,Pugh,1896-03-07,FALSE,Llantrisant,FALSE,Lock,Wales v England,Swansea,1924-01-19,7,7,0,3,1,0,0,0,0,1,6,0,0.14285714285714285,Wales,-3.3749525,51.5429188
363,Ivor,Thomas,1900-04-30,FALSE,Coity,FALSE,Hooker,Wales v England,Swansea,1924-01-19,1,1,0,0,0,0,0,0,0,0,1,0,0,Wales,-3.552574,51.521313
364,Ede,di Watkins,1899-03-27,FALSE,Neath,FALSE,Scrum-half,Wales v England,Swansea,1924-01-19,4,4,0,4,0,0,0,1,0,1,3,0,0.25,Wales,-3.805476,51.656991
365,Harold,Davies,1898-12-05,FALSE,Newport,FALSE,Centre,Scotland v Wales,Inverleith,1924-02-02,2,2,0,0,0,0,0,0,0,0,2,0,0,Wales,-94.1043876,37.5278234
366,Jack Elwyn,Evans,1896-10-19,FALSE,Llanguick,FALSE,Centre,Scotland v Wales,Inverleith,1924-02-02,1,1,0,0,0,0,0,0,0,0,1,0,0,Wales,-3.8447166,51.7312975
367,Vince,Griffiths,1901-05-29,FALSE,Pontypridd,FALSE,Fly-half,Scotland v Wales,Inverleith,1924-02-02,5,5,0,7,1,0,0,1,0,1,3,1,0.2,Wales,-3.342314,51.60077399999999
368,Mel,Rosser,1901-04-18,FALSE,Machen,FALSE,Fullback,Scotland v Wales,Inverleith,1924-02-02,2,2,0,0,0,0,0,0,0,1,1,0,0.5,Wales,-111.9958051,43.4660771
369,Pete,Evans,1902-05-08,FALSE,Neyland,FALSE,Centre,Wales v Ireland,Cardiff,1924-03-08,1,1,0,0,0,0,0,0,0,0,1,0,0,Wales,-83.9249935,35.9548981
370,Jack,Gore,1899-06-16,FALSE,Blaina,FALSE,Prop,Wales v Ireland,Cardiff,1924-03-08,4,4,0,0,0,0,0,0,0,1,3,0,0.25,Wales,-3.159627,51.766823
371,George,Hathway,1897-01-23,FALSE,Newport,FALSE,Hooker,Wales v Ireland,Cardiff,1924-03-08,2,2,0,0,0,0,0,0,0,1,1,0,0.5,Wales,-94.1043876,37.5278234
372,William,Jones,1894-02-04,FALSE,Cefneithin,FALSE,Flanker,Wales v Ireland,Cardiff,1924-03-08,1,1,0,0,0,0,0,0,0,0,1,0,0,Wales,-4.1021804,51.8045633
373,Dai,Parker,1904-08-08,FALSE,Llansamlet,FALSE,Prop,Wales v Ireland,Cardiff,1924-03-08,15,15,0,14,0,4,2,0,0,4,10,1,0.26666666666666666,Wales,-3.900516,51.664173
374,Bob,Randall,1890-12-03,FALSE,Neath,FALSE,Lock,Wales v Ireland,Cardiff,1924-03-08,2,2,0,0,0,0,0,0,0,1,1,0,0.5,Wales,-3.805476,51.656991
375,Ernie,Finch,1899-07-16,FALSE,Pembroke Dock,FALSE,Wing,France v Wales,Colombes,1924-03-27,7,7,0,12,4,0,0,0,0,3,4,0,0.42857142857142855,Wales,-4.943763,51.691894
376,Joe,Jones,1899-03-15,FALSE,Ystradgynlais,FALSE,Centre,France v Wales,Colombes,1924-03-27,1,1,0,0,0,0,0,0,0,1,0,0,1,Wales,-3.753603,51.779621
377,Arnold,Rickards,1901-08-17,FALSE,"Falfield, Glos",FALSE,Lock,France v Wales,Colombes,1924-03-27,1,1,0,3,1,0,0,0,0,1,0,0,1,Wales,-2.459793,51.636471
378,Bert,Stock,1897-04-18,FALSE,Newport,FALSE,Centre,France v Wales,Colombes,1924-03-27,4,4,0,0,0,0,0,0,0,1,2,1,0.25,Wales,-94.1043876,37.5278234
379,Cliff,Williams,1898-04-20,FALSE,Llangennech,FALSE,Hooker,Wales v New Zealand,Swansea,1924-11-29,2,2,0,0,0,0,0,0,0,0,2,0,0,Wales,-4.083864,51.69616200000001
380,Ede,di Williams,1898-10-14,FALSE,Cwmllynfell,FALSE,Fly-half,Wales v New Zealand,Swansea,1924-11-29,2,2,0,0,0,0,0,0,0,1,1,0,0.5,Wales,-3.824366,51.8023359
381,Willie,Hopkins,1896-06-18,FALSE,Margam,FALSE,Fly-half,England v Wales,Twickenham,1925-01-17,2,2,0,3,1,0,0,0,0,0,2,0,0,Wales,-3.7011936,51.5467364
382,Will,James,1902-07-16,FALSE,Aberavon,FALSE,Wing,England v Wales,Twickenham,1925-01-17,2,2,0,3,1,0,0,0,0,0,2,0,0,Wales,-3.804523699999999,51.6034701
383,Idris,Jones,1900-01-18,FALSE,Llanelly,FALSE,Flanker,England v Wales,Twickenham,1925-01-17,4,4,0,3,1,0,0,0,0,1,3,0,0.25,Wales,-3.114332,51.824049
384,Bryn,Phillips,1900-10-04,FALSE,Merthyr Tydfil,FALSE,Lock,England v Wales,Twickenham,1925-01-17,5,5,0,0,0,0,0,0,0,1,3,1,0.2,Wales,-3.381646,51.74872999999999
385,Idris,Richards,1892-11-18,FALSE,Treforest,FALSE,No. 8,England v Wales,Twickenham,1925-01-17,3,3,0,0,0,0,0,0,0,1,2,0,0.3333333333333333,Wales,-3.3279837,51.5928968
386,Cyril,Thomas,1902-03-27,FALSE,"Oldcastle, Bridgend",FALSE,Wing,England v Wales,Twickenham,1925-01-17,2,2,0,3,1,0,0,0,0,0,2,0,0,Wales,-3.572564,51.505558
387,Evan,Williams,1906-06-18,FALSE,Port Talbot,FALSE,Centre,England v Wales,Twickenham,1925-01-17,2,2,0,0,0,0,0,0,0,0,2,0,0,Wales,-3.784097,51.5946799
388,Ron,Herrera,1905-01-16,FALSE,Wattsville,FALSE,Lock,Wales v Scotland,Swansea,1925-02-07,8,8,0,6,2,0,0,0,0,3,4,1,0.375,Wales,-75.49927919999999,37.9346565
389,Steve,Lawrence,1899-08-05,FALSE,Treorchy,FALSE,Prop,Wales v Scotland,Swansea,1925-02-07,6,6,0,0,0,0,0,0,0,2,4,0,0.3333333333333333,Wales,-3.506101,51.659719
390,Ede,di Beynon,1902-03-01,FALSE,Oystermouth,FALSE,Flanker,Wales v France,Cardiff,1925-02-28,2,2,0,0,0,0,0,0,0,1,1,0,0.5,Wales,-4.006723,51.575218
391,Will,Lewis,1899-03-14,FALSE,Morriston,FALSE,Flanker,Wales v France,Cardiff,1925-02-28,1,1,0,0,0,0,0,0,0,1,0,0,1,Wales,-82.43809700000001,29.2814888
392,Jim,Brown,1901-03-22,FALSE,Cardiff,FALSE,Lock,Ireland v Wales,Belfast,1925-03-14,1,1,0,0,0,0,0,0,0,0,1,0,0,Wales,-3.17909,51.48158100000001
393,Sydney,Hinam,1898-08-29,FALSE,Aberbeeg,FALSE,Flanker,Ireland v Wales,Belfast,1925-03-14,5,5,0,0,0,0,0,0,0,2,2,1,0.4,Wales,-3.143984,51.709953
394,Arthur,John,1900-05-11,FALSE,Gowerton,FALSE,Scrum-half,Ireland v Wales,Belfast,1925-03-14,4,4,0,0,0,0,0,0,0,1,3,0,0.25,Wales,-4.042929,51.6480279
395,Nathan,Rocyn-Jones,1902-07-17,FALSE,Abertillery,FALSE,Fullback,Ireland v Wales,Belfast,1925-03-14,1,1,0,0,0,0,0,0,0,0,1,0,0,Wales,-3.135369,51.732161
396,Bernard,Turnbull,1904-10-16,FALSE,Cardiff,FALSE,Centre,Ireland v Wales,Belfast,1925-03-14,6,6,0,3,1,0,0,0,0,0,6,0,0,Wales,-3.17909,51.48158100000001
397,George,Andrews,1904-08-24,FALSE,Newport,FALSE,Wing,Wales v England,Cardiff,1926-01-16,5,5,0,9,3,0,0,0,0,1,3,1,0.2,Wales,-94.1043876,37.5278234
398,David,Evans,1899-09-03,FALSE,Llandybie,FALSE,Fullback,Wales v England,Cardiff,1926-01-16,1,1,0,0,0,0,0,0,0,0,0,1,0,Wales,-4.007789,51.8208259
399,Tom,Hopkins,1903-01-20,FALSE,Ystradgynlais,FALSE,Prop,Wales v England,Cardiff,1926-01-16,4,4,0,3,1,0,0,0,0,2,1,1,0.5,Wales,-3.753603,51.779621
400,Dai,Jenkins,1901-05-22,FALSE,Pyle,FALSE,Lock,Wales v England,Cardiff,1926-01-16,4,4,0,0,0,0,0,0,0,2,1,1,0.5,Wales,-95.9667772,36.1463534
401,Howell,John,1898-08-31,FALSE,Swansea,FALSE,Hooker,Wales v England,Cardiff,1926-01-16,8,8,0,0,0,0,0,0,0,3,4,1,0.375,Wales,-3.943645999999999,51.62144
402,Dai,Jones,1900-03-26,FALSE,Maentwrog,FALSE,Prop,Wales v England,Cardiff,1926-01-16,5,5,0,0,0,0,0,0,0,2,2,1,0.4,Wales,-3.988467,52.9441739
403,Bobby,Jones,1900-10-08,FALSE,Shanghai,FALSE,Fly-half,Wales v England,Cardiff,1926-01-16,3,3,0,0,0,0,0,0,0,1,1,1,0.3333333333333333,Wales,121.473701,31.230416
404,Tom,Lewis,1902-06-07,FALSE,Llantwit Fardre,FALSE,Prop,Wales v England,Cardiff,1926-01-16,3,3,0,0,0,0,0,0,0,0,2,1,0,Wales,-3.329398,51.56053199999999
405,Bill,Everson,1905-03-12,FALSE,Rudry,FALSE,Fullback,Scotland v Wales,Murrayfield,1926-02-06,1,1,0,2,0,1,0,0,0,0,1,0,0,Wales,-3.1416369,51.5677388
406,Wick,Powell,1904-10-18,FALSE,"Cwmnantygynt, Abercar",FALSE,Scrum-half,Scotland v Wales,Murrayfield,1926-02-06,27,27,0,16,1,1,0,2,1,14,10,3,0.5185185185185185,Wales,-65.26624000000001,-43.290157
407,Emlyn,Watkins,1904-09-21,FALSE,Blaina,FALSE,Flanker,Scotland v Wales,Murrayfield,1926-02-06,3,3,0,3,1,0,0,0,0,2,1,0,0.6666666666666666,Wales,-3.159627,51.766823
408,Windsor,Lewis,1906-11-11,FALSE,Maesteg,FALSE,Fly-half,Wales v Ireland,Swansea,1926-03-13,6,6,0,7,1,0,0,1,0,2,4,0,0.3333333333333333,Wales,-3.660466,51.60856200000001
409,Tommy,Rees,1904-08-22,FALSE,Pontyclun,FALSE,Fullback,Wales v Ireland,Swansea,1926-03-13,4,4,0,4,0,2,0,0,0,2,2,0,0.5,Wales,-3.393295,51.521579
410,Charles,Rowlands,1899-06-13,FALSE,Merthyr Tydfil,FALSE,Wing,Wales v Ireland,Swansea,1926-03-13,1,1,0,0,0,0,0,0,0,1,0,0,1,Wales,-3.381646,51.74872999999999
411,Harry,Phillips,1903-06-22,FALSE,Cross Keys,FALSE,Lock,England v Wales,Twickenham,1927-01-15,9,9,0,0,0,0,0,0,0,2,7,0,0.2222222222222222,Wales,-90.29616449999999,38.8077911
412,John,Roberts,1906-04-04,FALSE,"Toxteth, Liverpool",FALSE,Centre,England v Wales,Twickenham,1927-01-15,13,13,0,15,5,0,0,0,0,4,8,1,0.3076923076923077,Wales,-2.9448845,53.3935213
413,Watcyn,Thomas,1906-01-16,FALSE,Llanelly,FALSE,No. 8,England v Wales,Twickenham,1927-01-15,14,14,0,6,2,0,0,0,0,5,8,1,0.35714285714285715,Wales,-3.114332,51.824049
414,Billy,Williams,1905-12-29,FALSE,Crumlin,FALSE,Flanker,England v Wales,Twickenham,1927-01-15,4,4,0,0,0,0,0,0,0,1,3,0,0.25,Wales,-6.3089222,53.3252584
415,Tom,Arthur,1906-01-10,FALSE,Pontypridd,FALSE,Lock,Wales v Scotland,Cardiff,1927-02-05,18,18,0,12,4,0,0,0,0,9,7,2,0.5,Wales,-3.342314,51.60077399999999
416,John,Bartlett,1907-08-06,FALSE,Carmarthen,FALSE,Wing,Wales v Scotland,Cardiff,1927-02-05,3,3,0,3,1,0,0,0,0,1,2,0,0.3333333333333333,Wales,-4.312131,51.85762
417,Ned,Jenkins,1904-07-28,FALSE,Tonyrefail,FALSE,Lock,Wales v Scotland,Cardiff,1927-02-05,21,21,0,0,0,0,0,0,0,10,10,1,0.47619047619047616,Wales,-3.428319,51.583768
418,Gwyn,Richards,1905-12-22,FALSE,Bryncethin,FALSE,Fly-half,Wales v Scotland,Cardiff,1927-02-05,1,1,0,0,0,0,0,0,0,0,1,0,0,Wales,-3.564131,51.5477892
419,Jim,Burns,1899-03-22,FALSE,Cardiff,FALSE,Prop,Wales v France,Swansea,1927-02-26,2,2,0,0,0,0,0,0,0,1,1,0,0.5,Wales,-3.17909,51.48158100000001
420,Guy,Stewart-Morgan,1907-12-26,FALSE,Garnant,FALSE,Centre,Wales v France,Swansea,1927-02-26,8,8,0,13,3,0,0,1,0,5,2,1,0.625,Wales,-3.904233999999999,51.801469
421,Lonza,Bowdler,1901-01-04,FALSE,Abercarn,FALSE,Hooker,Wales v Australia,Cardiff,1927-11-26,15,15,0,0,0,0,0,0,0,5,9,1,0.3333333333333333,Wales,-3.135657,51.646985
422,Gus,Broughton,1904-04-29,FALSE,Llandough,FALSE,No. 8,Wales v Australia,Cardiff,1927-11-26,2,2,0,0,0,0,0,0,0,1,1,0,0.5,Wales,-3.198786,51.454881
423,Tal,Harris,1902-02-04,FALSE,"Maindy, Cardiff",FALSE,Scrum-half,Wales v Australia,Cardiff,1927-11-26,1,1,0,0,0,0,0,0,0,0,1,0,0,Wales,-3.1926807,51.4976145
424,Tom,Hollingdale,1900-11-12,FALSE,"Cockett, Swansea",FALSE,No. 8,Wales v Australia,Cardiff,1927-11-26,6,6,0,0,0,0,0,0,0,1,5,0,0.16666666666666666,Wales,-3.98227,51.632323
425,David,Jenkins,1904-04-12,FALSE,Resolven,FALSE,Prop,Wales v Australia,Cardiff,1927-11-26,2,2,0,0,0,0,0,0,0,0,2,0,0,Wales,-3.693584,51.710349
426,Dan,Jones,1907-03-02,FALSE,Neath Abbey,FALSE,Wing,Wales v Australia,Cardiff,1927-11-26,1,1,0,0,0,0,0,0,0,0,1,0,0,Wales,-3.8259536,51.6637073
427,Iorwerth,Jones,1903-04-03,FALSE,Loughor,FALSE,No. 8,Wales v Australia,Cardiff,1927-11-26,5,5,0,0,0,0,0,0,0,1,4,0,0.2,Wales,-4.067286,51.665095
428,Roy,Jones,1903-02-22,FALSE,Swansea,FALSE,Centre,Wales v Australia,Cardiff,1927-11-26,2,2,0,0,0,0,0,0,0,0,2,0,0,Wales,-3.943645999999999,51.62144
429,Cecil,Pritchard,1902-05-01,FALSE,"Tranch, Pontypool",FALSE,Hooker,Wales v England,Swansea,1928-01-21,8,8,0,0,0,0,0,0,0,3,4,1,0.375,Wales,-3.0548208,51.7006702
430,Archie,Skym,1906-07-12,FALSE,Llanarthne,FALSE,Prop,Wales v England,Swansea,1928-01-21,20,20,0,6,2,0,0,0,0,9,9,2,0.45,Wales,-4.131084,51.8614841
431,Gwyn,Davies,1908-06-23,FALSE,Aberkenfig,FALSE,Wing,France v Wales,Colombes,1928-04-09,3,3,0,0,0,0,0,0,0,0,3,0,0,Wales,-3.597806,51.540786
432,Jack,Bassett,1905-07-11,FALSE,Trebanog,FALSE,Fullback,England v Wales,Twickenham,1929-01-19,20,20,0,29,0,10,3,0,0,9,9,2,0.45,Wales,-3.4219271,51.6004801
433,Dick,Jones,1906-01-05,FALSE,Shanghai,FALSE,Flanker,England v Wales,Twickenham,1929-01-19,1,1,0,0,0,0,0,0,0,0,1,0,0,Wales,121.473701,31.230416
434,Jack,Morley,1909-07-28,FALSE,Newport,FALSE,Wing,England v Wales,Twickenham,1929-01-19,17,17,0,18,6,0,0,0,0,9,6,2,0.5294117647058824,Wales,-94.1043876,37.5278234
435,Bill,Roberts,1909-02-20,FALSE,"Toxteth, Liverpool",FALSE,Fly-half,England v Wales,Twickenham,1929-01-19,1,1,0,0,0,0,0,0,0,0,1,0,0,Wales,-2.9448845,53.3935213
436,Harold,Sturgess,1907-12-22,FALSE,Maesteg,FALSE,Lock,England v Wales,Twickenham,1929-01-19,2,2,0,0,0,0,0,0,0,1,1,0,0.5,Wales,-3.660466,51.60856200000001
437,Bob,Barrell,1905-11-01,FALSE,"Newtown, Mountain Ash",FALSE,Prop,Wales v Scotland,Swansea,1929-02-02,4,4,0,3,1,0,0,0,0,2,1,1,0.5,Wales,-3.367714,51.677325
438,Harry,Bowcott,1907-04-30,FALSE,Cardiff,FALSE,Centre,Wales v Scotland,Swansea,1929-02-02,13,13,0,6,2,0,0,0,0,5,6,2,0.38461538461538464,Wales,-3.17909,51.48158100000001
439,Harry,Peacock,1909-02-14,FALSE,Newport,FALSE,Flanker,Wales v Scotland,Swansea,1929-02-02,6,6,0,6,2,0,0,0,0,4,1,1,0.6666666666666666,Wales,-94.1043876,37.5278234
440,Frank,Williams,1910-01-26,FALSE,Cardiff,FALSE,Centre,Wales v Scotland,Swansea,1929-02-02,14,14,0,6,2,0,0,0,0,8,5,1,0.5714285714285714,Wales,-3.17909,51.48158100000001
441,Arthur,Lemon,1905-04-15,FALSE,Tonna,FALSE,No. 8,Ireland v Wales,Belfast,1929-03-09,13,13,0,0,0,0,0,0,0,7,4,2,0.5384615384615384,Wales,-86.7824369,36.0315987
442,Arthur,Hickman,1910-08-06,FALSE,Skewen,FALSE,Wing,Wales v England,Cardiff,1930-01-18,2,2,0,0,0,0,0,0,0,0,2,0,0,Wales,-3.841789,51.660932
443,Tom,Jones-Davies,1906-03-04,FALSE,Nantgaredig,FALSE,Centre,Wales v England,Cardiff,1930-01-18,4,4,0,6,2,0,0,0,0,2,1,1,0.5,Wales,-4.1895919,51.8738271
444,David,Roberts,1909-01-23,FALSE,Llanelly,FALSE,Scrum-half,Wales v England,Cardiff,1930-01-18,1,1,0,0,0,0,0,0,0,0,1,0,0,Wales,-3.114332,51.824049
445,Ocker,Thomas,1907-03-18,FALSE,Merthyr Tydfil,FALSE,Flanker,Wales v England,Cardiff,1930-01-18,1,1,0,0,0,0,0,0,0,0,1,0,0,Wales,-3.381646,51.74872999999999
446,Ronnie,Boon,1909-06-11,FALSE,Barry,FALSE,Wing,Scotland v Wales,Murrayfield,1930-02-01,12,12,0,20,4,0,0,2,0,7,4,1,0.5833333333333334,Wales,-95.705564999999993,37.2248725
447,Bert,Day,1908-05-08,FALSE,Panteg,FALSE,Hooker,Scotland v Wales,Murrayfield,1930-02-01,5,5,0,0,0,0,0,0,0,3,1,1,0.6,Wales,-3.0227254,51.6815267
448,Chick,Jones,1906-11-24,FALSE,Clydach,FALSE,Centre,Scotland v Wales,Murrayfield,1930-02-01,2,2,0,7,1,0,0,1,0,0,2,0,0,Wales,-3.898795,51.69429299999999
449,Dai,Thomas,1909-03-30,FALSE,Llansamlet,FALSE,Lock,Scotland v Wales,Murrayfield,1930-02-01,11,11,0,0,0,0,0,0,0,5,5,1,0.45454545454545453,Wales,-3.900516,51.664173
450,Norman,Fender,1910-09-02,FALSE,Cardiff,FALSE,Flanker,Wales v Ireland,Swansea,1930-03-08,6,6,0,3,1,0,0,0,0,5,0,1,0.8333333333333334,Wales,-3.17909,51.48158100000001
451,Howie,Jones,1907-09-08,FALSE,Neath,FALSE,Wing,Wales v Ireland,Swansea,1930-03-08,2,2,0,3,1,0,0,0,0,2,0,0,1,Wales,-3.805476,51.656991
452,Claud,Davey,1908-12-14,FALSE,Garnant,FALSE,Centre,France v Wales,Colombes,1930-04-21,23,23,0,15,5,0,0,0,0,14,7,2,0.6086956521739131,Wales,-3.904233999999999,51.801469
453,Edgar,Jones,1910-05-04,FALSE,Sketty,FALSE,Prop,France v Wales,Colombes,1930-04-21,5,5,0,0,0,0,0,0,0,2,2,1,0.4,Wales,-3.986448,51.618165
454,Tommy,Scourfield,1909-02-26,FALSE,Ynysybwl,FALSE,Fullback,France v Wales,Colombes,1930-04-21,1,1,0,0,0,0,0,0,0,1,0,0,1,Wales,-3.360219,51.639356
455,Tom,Day,1907-12-29,FALSE,Glanaman,FALSE,Prop,England v Wales,Twickenham,1931-01-17,13,13,0,0,0,0,0,0,0,8,3,2,0.6153846153846154,Wales,-3.922671,51.805452
456,David,James,1906-10-07,FALSE,Treorchy,FALSE,Hooker,Wales v France,Swansea,1931-02-28,2,2,0,0,0,0,0,0,0,2,0,0,1,Wales,-3.506101,51.659719
457,Jim,Lang,1909-10-11,FALSE,Garnant,FALSE,No. 8,Wales v France,Swansea,1931-02-28,12,12,0,3,1,0,0,0,0,8,2,2,0.6666666666666666,Wales,-3.904233999999999,51.801469
458,Dicky,Ralph,1908-10-20,FALSE,Abercarn,FALSE,Fly-half,Wales v France,Swansea,1931-02-28,6,6,0,17,3,0,0,2,0,4,2,0,0.6666666666666666,Wales,-3.135657,51.646985
459,Sgili,Davies,1906-02-14,FALSE,Cwmgors,FALSE,Flanker,Wales v South Africa,Swansea,1931-12-05,4,4,0,3,1,0,0,0,0,2,2,0,0.5,Wales,-3.8784985,51.7818321
460,Bryn,Evans,1906-06-21,FALSE,Felinfoel,FALSE,Hooker,England v Wales,Twickenham,1933-01-21,6,6,0,0,0,0,0,0,0,3,2,1,0.5,Wales,-4.1448716,51.6987915
461,Iorrie,Isaacs,1910-10-04,FALSE,Cifynydd,FALSE,Flanker,England v Wales,Twickenham,1933-01-21,2,2,0,0,0,0,0,0,0,1,1,0,0.5,Wales,-3.3189784,51.6213229
462,Viv,Jenkins,1911-11-02,FALSE,Port Talbot,FALSE,Fullback,England v Wales,Twickenham,1933-01-21,15,15,0,45,1,10,6,1,0,8,5,2,0.5333333333333333,Wales,-3.784097,51.5946799
463,Arthur,Jones,1908-10-02,FALSE,Bridgend,FALSE,Wing,England v Wales,Twickenham,1933-01-21,2,2,0,0,0,0,0,0,0,1,1,0,0.5,Wales,-3.576945,51.504286
464,Raymond,Jones,1911-08-29,FALSE,"Blundellsands, Lancs",FALSE,Lock,England v Wales,Twickenham,1933-01-21,2,2,0,0,0,0,0,0,0,1,1,0,0.5,Wales,-3.0520153,53.49793020000001
465,Maurice,Turnbull,1906-03-16,FALSE,Cardiff,FALSE,Scrum-half,England v Wales,Twickenham,1933-01-21,2,2,0,0,0,0,0,0,0,1,1,0,0.5,Wales,-3.17909,51.48158100000001
466,Wilf,Wooller,1912-11-20,FALSE,Rhos-on-Sea,FALSE,Centre,England v Wales,Twickenham,1933-01-21,18,18,0,26,6,1,2,0,0,8,8,2,0.4444444444444444,Wales,-3.7499412,53.3080507
467,Gwyn,Bayliss,1907-05-07,FALSE,Brynmawr,FALSE,Fullback,Wales v Scotland,Swansea,1933-02-04,1,1,0,0,0,0,0,0,0,0,1,0,0,Wales,-75.3144595,40.0278802
468,Bryn,Evans,1902-01-16,FALSE,Penclawdd,FALSE,Scrum-half,Wales v Scotland,Swansea,1933-02-04,1,1,0,0,0,0,0,0,0,0,1,0,0,Wales,-4.100125999999999,51.6419
469,Ron,Morris,1913-06-13,FALSE,Carmarthen,FALSE,Fly-half,Wales v Scotland,Swansea,1933-02-04,2,2,0,0,0,0,0,0,0,0,2,0,0,Wales,-4.312131,51.85762
470,Billy,Moore,1908-02-17,FALSE,Llangeinor,FALSE,Lock,Ireland v Wales,Belfast,1933-03-11,1,1,0,0,0,0,0,0,0,0,1,0,0,Wales,-3.5674561,51.5767993
471,Lew,Rees,1910-01-17,FALSE,Treherbert,FALSE,Flanker,Ireland v Wales,Belfast,1933-03-11,1,1,0,0,0,0,0,0,0,0,1,0,0,Wales,-3.537165,51.675007
472,Bun,Cowey,1911-11-20,FALSE,"Tidworth, Wilts",FALSE,Wing,Wales v England,Cardiff,1934-01-20,4,4,0,9,3,0,0,0,0,2,1,1,0.5,Wales,-1.6644823,51.24144889999999
473,Cecil,Davies,1909-09-12,FALSE,Pontypridd,FALSE,Prop,Wales v England,Cardiff,1934-01-20,1,1,0,0,0,0,0,0,0,0,1,0,0,Wales,-3.342314,51.60077399999999
474,David,Evans,1909-04-07,FALSE,Barry,FALSE,Scrum-half,Wales v England,Cardiff,1934-01-20,1,1,0,0,0,0,0,0,0,0,1,0,0,Wales,-95.705564999999993,37.2248725
475,John,Evans,1911-09-12,FALSE,Newport,FALSE,Hooker,Wales v England,Cardiff,1934-01-20,1,1,0,0,0,0,0,0,0,0,1,0,0,Wales,-94.1043876,37.5278234
476,Bryn,Howells,1911-02-09,FALSE,Hendy,FALSE,Fullback,Wales v England,Cardiff,1934-01-20,1,1,0,0,0,0,0,0,0,0,1,0,0,Wales,-76.8449783,42.0787089
477,Gomer,Hughes,1910-05-13,FALSE,Tonmawr,FALSE,Lock,Wales v England,Cardiff,1934-01-20,3,3,0,0,0,0,0,0,0,2,1,0,0.6666666666666666,Wales,-3.7331671,51.65381199999999
478,Geoffrey,Jones,1914-07-08,FALSE,"Ipswich, Suffolk",FALSE,Wing,Wales v England,Cardiff,1934-01-20,5,5,0,6,2,0,0,0,0,2,2,1,0.4,Wales,1.14822,52.056736
479,Ken,Jones,1911-09-05,FALSE,"Llanishen, Monmouth",FALSE,No. 8,Wales v England,Cardiff,1934-01-20,1,1,0,0,0,0,0,0,0,0,1,0,0,Wales,-2.7661901,51.727656
480,Cliff,Jones,1914-03-12,FALSE,Porth,FALSE,Fly-half,Wales v England,Cardiff,1934-01-20,13,13,0,6,2,0,0,0,0,8,3,2,0.6153846153846154,Wales,-122.0374301,47.606173
481,Glyn,Prosser,1907-11-27,FALSE,Glynneath,FALSE,Flanker,Wales v England,Cardiff,1934-01-20,4,4,0,0,0,0,0,0,0,3,1,0,0.75,Wales,-3.617823,51.74876
482,Arthur,Rees,1912-11-20,FALSE,Llangadog,FALSE,Flanker,Wales v England,Cardiff,1934-01-20,13,13,0,0,0,0,0,0,0,5,6,2,0.38461538461538464,Wales,-3.882858999999999,51.938106
483,Idwal,Rees,1910-07-25,FALSE,Swansea,FALSE,Centre,Wales v England,Cardiff,1934-01-20,14,14,0,6,2,0,0,0,0,8,5,1,0.5714285714285714,Wales,-3.943645999999999,51.62144
484,Harry,Truman,1909-12-11,FALSE,Porth,FALSE,Lock,Wales v England,Cardiff,1934-01-20,2,2,0,0,0,0,0,0,0,0,1,1,0,Wales,-122.0374301,47.606173
485,Iorwerth,Evans,1906-05-23,FALSE,Trelewis,FALSE,Hooker,Scotland v Wales,Murrayfield,1934-02-03,2,2,0,0,0,0,0,0,0,2,0,0,1,Wales,-3.298156,51.66895599999999
486,Albert,Fear,1907-08-25,FALSE,Abertillery,FALSE,Flanker,Scotland v Wales,Murrayfield,1934-02-03,4,4,0,3,1,0,0,0,0,3,1,0,0.75,Wales,-3.135369,51.732161
487,Bert,Jones,1906-05-01,FALSE,Llanelly,FALSE,Scrum-half,Scotland v Wales,Murrayfield,1934-02-03,2,2,0,0,0,0,0,0,0,2,0,0,1,Wales,-3.114332,51.824049
488,Dai,Prosser,1912-10-13,FALSE,Neath,FALSE,Prop,Scotland v Wales,Murrayfield,1934-02-03,2,2,0,0,0,0,0,0,0,2,0,0,1,Wales,-3.805476,51.656991
489,Bill,Ward,1907-01-06,FALSE,Risca,FALSE,Lock,Scotland v Wales,Murrayfield,1934-02-03,2,2,0,0,0,0,0,0,0,2,0,0,1,Wales,-71.41570449999999,41.8328524
490,Arthur,Bassett,1914-06-28,FALSE,Kenfig Hill,FALSE,Wing,Wales v Ireland,Swansea,1934-03-10,6,6,0,0,0,0,0,0,0,3,2,1,0.5,Wales,-3.678068,51.533262
491,Con,Murphy,1908-09-03,FALSE,Aberfan,FALSE,Hooker,England v Wales,Twickenham,1935-01-19,3,3,0,0,0,0,0,0,0,1,1,1,0.3333333333333333,Wales,-3.345293,51.694515
492,Tom,Rees,1913-05-08,FALSE,Fleur-de-Lys,FALSE,Prop,Wales v Scotland,Cardiff,1935-02-02,8,8,0,0,0,0,0,0,0,4,3,1,0.5,Wales,-106.2985596,35.8799069
493,Tabber,Williams,1907-07-27,FALSE,Cwmaman,FALSE,Prop,Wales v Scotland,Cardiff,1935-02-02,8,8,0,0,0,0,0,0,0,4,3,1,0.5,Wales,-3.441969,51.68576299999999
494,Tommy,James,1904-10-06,FALSE,Aberavon,FALSE,Fullback,Ireland v Wales,Belfast,1935-03-09,2,2,0,3,0,0,1,0,0,0,2,0,0,Wales,-3.804523699999999,51.6034701
495,Harry,Payne,1907-12-10,FALSE,Llangydelach,FALSE,Prop,Wales v New Zealand,Cardiff,1935-12-21,1,1,0,0,0,0,0,0,0,1,0,0,1,Wales,-3.960054,51.671667
496,Haydn,Tanner,1917-01-09,FALSE,Penclawydd,FALSE,Scrum-half,Wales v New Zealand,Cardiff,1935-12-21,26,26,0,0,0,0,0,0,0,12,12,2,0.46153846153846156,Wales,-4.100125999999999,51.6419
497,Don,Tarr,1910-03-11,FALSE,Ammanford,FALSE,Hooker,Wales v New Zealand,Cardiff,1935-12-21,1,1,0,0,0,0,0,0,0,1,0,0,1,Wales,-3.988459,51.792888
498,Ede,di Watkins,1916-03-02,FALSE,Caerphilly,FALSE,Lock,Wales v New Zealand,Cardiff,1935-12-21,8,8,0,0,0,0,0,0,0,4,4,0,0.5,Wales,-3.218134,51.578829
499,Edgar,Long,1907-09-10,FALSE,Oystermouth,FALSE,Flanker,Wales v England,Swansea,1936-01-18,7,7,0,0,0,0,0,0,0,4,2,1,0.5714285714285714,Wales,-4.006723,51.575218
500,Barney,McCall,1913-05-13,FALSE,Clifton,FALSE,Wing,Wales v England,Swansea,1936-01-18,3,3,0,0,0,0,0,0,0,2,0,1,0.6666666666666666,Wales,-74.16375529999999,40.8584328
501,Harold,Thomas,1914-02-19,FALSE,Neath,FALSE,Lock,Wales v England,Swansea,1936-01-18,6,6,0,0,0,0,0,0,0,2,3,1,0.3333333333333333,Wales,-3.805476,51.656991
502,Griff,Williams,1907-06-30,FALSE,"Tynewydd, Glamorgan",FALSE,Lock,Wales v England,Swansea,1936-01-18,3,3,0,0,0,0,0,0,0,2,0,1,0.6666666666666666,Wales,-3.4514152,51.6164113
503,Willy,Davies,1916-08-23,FALSE,Penclawdd,FALSE,Fly-half,Wales v Ireland,Cardiff,1936-03-14,6,6,0,7,1,0,0,1,0,3,3,0,0.5,Wales,-4.100125999999999,51.6419
504,Bill,Clement,1915-04-09,FALSE,Llanelly,FALSE,Wing,England v Wales,Twickenham,1937-01-16,6,6,0,3,1,0,0,0,0,2,4,0,0.3333333333333333,Wales,-3.114332,51.824049
505,Emrys,Evans,1911-04-24,FALSE,Gwaun-cae-Gurwen,FALSE,Flanker,England v Wales,Twickenham,1937-01-16,3,3,0,0,0,0,0,0,0,2,1,0,0.6666666666666666,Wales,-3.883896,51.79228
506,David,Thomas,1909-03-27,FALSE,Neath,FALSE,Lock,England v Wales,Twickenham,1937-01-16,1,1,0,0,0,0,0,0,0,0,1,0,0,Wales,-3.805476,51.656991
507,Henry,Hopkin,1914-07-01,FALSE,Newport,FALSE,Wing,Wales v Scotland,Swansea,1937-02-06,1,1,0,0,0,0,0,0,0,0,1,0,0,Wales,-94.1043876,37.5278234
508,Harry,Rees,1908-05-09,FALSE,Pontypridd,FALSE,Prop,Wales v Scotland,Swansea,1937-02-06,5,5,0,0,0,0,0,0,0,2,3,0,0.4,Wales,-3.342314,51.60077399999999
509,Bunner,Travers,1913-12-02,FALSE,Newport,FALSE,Hooker,Wales v Scotland,Swansea,1937-02-06,14,14,0,3,1,0,0,0,0,6,8,0,0.42857142857142855,Wales,-94.1043876,37.5278234
510,Ivor,Bennett,1913-06-16,FALSE,Aberkenfig,FALSE,Prop,Ireland v Wales,Belfast,1937-04-03,1,1,0,0,0,0,0,0,0,0,1,0,0,Wales,-3.597806,51.540786
511,Walter,Legge,1911-11-11,FALSE,Risca,FALSE,Fullback,Ireland v Wales,Belfast,1937-04-03,2,2,0,5,0,1,1,0,0,1,1,0,0.5,Wales,-71.41570449999999,41.8328524
512,Russell,Taylor,1914-12-02,FALSE,Risca,FALSE,Flanker,Ireland v Wales,Belfast,1937-04-03,5,5,0,6,1,0,1,0,0,1,4,0,0.2,Wales,-71.41570449999999,41.8328524
513,Allen,McCarley,1914-12-05,FALSE,Port Talbot,FALSE,Flanker,Wales v England,Cardiff,1938-01-15,3,3,0,9,3,0,0,0,0,2,1,0,0.6666666666666666,Wales,-3.784097,51.5946799
514,Fred,Morgan,1915-02-11,FALSE,Pontyberem,FALSE,Lock,Wales v England,Cardiff,1938-01-15,4,4,0,0,0,0,0,0,0,2,2,0,0.5,Wales,-4.173546,51.777791
515,Ede,di Morgan,1913-12-18,FALSE,Abercrave,FALSE,Prop,Wales v England,Cardiff,1938-01-15,6,6,0,0,0,0,0,0,0,2,4,0,0.3333333333333333,Wales,-3.705678,51.801738
516,Walter,Vickery,1909-10-25,FALSE,Port Talbot,FALSE,No. 8,Wales v England,Cardiff,1938-01-15,4,4,0,0,0,0,0,0,0,2,2,0,0.5,Wales,-3.784097,51.5946799
517,Cyril,Challinor,1912-05-13,FALSE,Crynant,FALSE,Flanker,England v Wales,Twickenham,1939-01-21,1,1,0,0,0,0,0,0,0,0,1,0,0,Wales,-3.74794,51.731322
518,Idwal,Davies,1915-11-10,FALSE,Pontarddulais,FALSE,Centre,England v Wales,Twickenham,1939-01-21,1,1,0,0,0,0,0,0,0,0,1,0,0,Wales,-4.037071,51.712266
519,Wendy,Davis,1913-09-07,FALSE,Birmingham,FALSE,Prop,England v Wales,Twickenham,1939-01-21,3,3,0,0,0,0,0,0,0,2,1,0,0.6666666666666666,Wales,-86.8103567,33.5185892
520,John,Ford,1917-10-13,FALSE,"Redcar, Yorks",FALSE,Wing,England v Wales,Twickenham,1939-01-21,1,1,0,0,0,0,0,0,0,0,1,0,0,Wales,-1.0779515,54.5974636
521,Syd,Williams,1918-04-17,FALSE,Aberavon,FALSE,Wing,England v Wales,Twickenham,1939-01-21,3,3,0,0,0,0,0,0,0,2,1,0,0.6666666666666666,Wales,-3.804523699999999,51.6034701
522,Howard,Davies,1916-12-25,FALSE,Llanelly,FALSE,Fullback,Wales v Scotland,Cardiff,1939-02-04,6,6,0,0,0,0,0,0,0,5,1,0,0.8333333333333334,Wales,-3.114332,51.824049
523,Leslie,Davies,1913-07-13,FALSE,Swansea,FALSE,Prop,Wales v Scotland,Cardiff,1939-02-04,2,2,0,0,0,0,0,0,0,2,0,0,1,Wales,-3.943645999999999,51.62144
524,Mickey,Davies,1918-10-07,FALSE,Not Available,FALSE,Centre,Wales v Scotland,Cardiff,1939-02-04,2,2,0,3,1,0,0,0,0,2,0,0,1,Wales,-122.2636808,37.8009514
525,Elfed,Jones,1912-04-29,FALSE,Llanelly,FALSE,Wing,South Africa v Great Britain,Johannesburg,1938-08-06,3,3,0,3,1,0,0,0,0,2,1,0,0.6666666666666666,Wales,-3.114332,51.824049
526,Les,Manfield,1915-11-10,FALSE,Mountain Ash,FALSE,No. 8,Wales v Scotland,Cardiff,1939-02-04,7,7,0,0,0,0,0,0,0,4,2,1,0.5714285714285714,Wales,-84.1288201,36.6575824
527,Ron,Price,1915-09-16,FALSE,Trealaw,FALSE,Lock,Wales v Scotland,Cardiff,1939-02-04,2,2,0,0,0,0,0,0,0,2,0,0,1,Wales,-3.445513,51.622843
528,Viv,Law,1910-06-11,FALSE,Cardiff,FALSE,Prop,Ireland v Wales,Belfast,1939-03-11,1,1,0,0,0,0,0,0,0,1,0,0,1,Wales,-3.17909,51.48158100000001
529,Chris,Matthews,1911-08-16,FALSE,Newton Nottage,FALSE,Wing,Ireland v Wales,Belfast,1939-03-11,1,1,0,0,0,0,0,0,0,1,0,0,1,Wales,-3.6873522,51.4869415
530,Griff,Bevan,1914-08-15,FALSE,Burry Port,FALSE,Prop,Wales v England,Cardiff,1947-01-18,1,1,0,0,0,0,0,0,0,0,1,0,0,Wales,-4.2561,51.683466
531,Reg,Blakemore,1924-09-01,FALSE,Newport,FALSE,Hooker,Wales v England,Cardiff,1947-01-18,1,1,0,0,0,0,0,0,0,0,1,0,0,Wales,-94.1043876,37.5278234
532,Billy,Cleaver,1921-09-15,FALSE,Treorchy,FALSE,Fly-half,Wales v England,Cardiff,1947-01-18,17,17,0,6,1,0,0,1,0,9,6,2,0.5294117647058824,Wales,-3.506101,51.659719
533,Gwyn,Evans,1918-08-17,FALSE,Treherbert,FALSE,Flanker,Wales v England,Cardiff,1947-01-18,12,12,0,3,1,0,0,0,0,6,5,1,0.5,Wales,-3.537165,51.675007
534,Dai,Jones,1916-04-30,FALSE,Morriston,FALSE,Prop,Wales v England,Cardiff,1947-01-18,7,7,0,0,0,0,0,0,0,3,4,0,0.42857142857142855,Wales,-82.43809700000001,29.2814888
535,Ken,Jones,1921-12-30,FALSE,Blaenavon,FALSE,Wing,Wales v England,Cardiff,1947-01-18,47,47,0,57,19,0,0,0,0,28,16,3,0.5957446808510638,Wales,-3.085896,51.772502
536,Jack,Matthews,1920-06-21,FALSE,Bridgend,FALSE,Centre,Wales v England,Cardiff,1947-01-18,23,23,0,12,4,0,0,0,0,10,10,3,0.43478260869565216,Wales,-3.576945,51.504286
537,George,Parsons,1926-04-21,FALSE,Newbridge,FALSE,Lock,Wales v England,Cardiff,1947-01-18,1,1,0,0,0,0,0,0,0,0,1,0,0,Wales,-73.5379997,41.05675430000001
538,Rees,Stephens,1922-04-16,FALSE,Neath,FALSE,Lock,Wales v England,Cardiff,1947-01-18,34,34,0,8,2,1,0,0,0,21,13,0,0.6176470588235294,Wales,-3.805476,51.656991
539,Bleddyn,Williams,1923-02-22,FALSE,Taff's Well,FALSE,Centre,Wales v England,Cardiff,1947-01-18,27,27,0,24,8,0,0,0,0,15,10,2,0.5555555555555556,Wales,-3.27196,51.545383
540,Ossie,Williams,1921-04-12,FALSE,Llanelly,FALSE,Flanker,Wales v England,Cardiff,1947-01-18,7,7,0,3,0,0,1,0,0,3,3,1,0.42857142857142855,Wales,-3.114332,51.824049
541,Stanley,Williams,1914-11-04,FALSE,Llanelly,FALSE,Lock,Wales v England,Cardiff,1947-01-18,6,6,0,0,0,0,0,0,0,4,2,0,0.6666666666666666,Wales,-3.114332,51.824049
542,Les,Williams,1922-05-10,FALSE,Mynyddygarreg,FALSE,Wing,Wales v England,Cardiff,1947-01-18,7,7,0,9,3,0,0,0,0,5,2,0,0.7142857142857143,Wales,-4.2809292,51.7493814
543,Cliff,Davies,1919-12-12,FALSE,Kenfig Hill,FALSE,Prop,Scotland v Wales,Murrayfield,1947-02-01,17,17,0,3,1,0,0,0,0,10,5,2,0.5882352941176471,Wales,-3.678068,51.533262
544,Glyn,Davies,1927-08-24,FALSE,Cifynydd,FALSE,Fly-half,Scotland v Wales,Murrayfield,1947-02-01,11,11,0,0,0,0,0,0,0,5,5,1,0.45454545454545453,Wales,-3.3189784,51.6213229
545,Wilf,Evans,1914-05-12,FALSE,Griffithstown,FALSE,Prop,Scotland v Wales,Murrayfield,1947-02-01,1,1,0,0,0,0,0,0,0,1,0,0,1,Wales,-3.029043,51.686096
546,Billy,Gore,1919-11-19,FALSE,Blaina,FALSE,Hooker,Scotland v Wales,Murrayfield,1947-02-01,3,3,0,0,0,0,0,0,0,3,0,0,1,Wales,-3.159627,51.766823
547,Bill,Tamplin,1917-05-10,FALSE,Risca,FALSE,Lock,Scotland v Wales,Murrayfield,1947-02-01,7,7,0,24,0,3,6,0,0,5,1,1,0.7142857142857143,Wales,-71.41570449999999,41.8328524
548,Bob,Evans,1921-02-16,FALSE,Rhymney,FALSE,Flanker,France v Wales,Colombes,1947-03-22,16,16,0,3,1,0,0,0,0,9,5,2,0.5625,Wales,-3.2853629,51.759452
549,Peter,Rees,1925-02-08,FALSE,Penygroes,FALSE,Wing,France v Wales,Colombes,1947-03-22,2,2,0,0,0,0,0,0,0,2,0,0,1,Wales,-4.283645,53.05459
550,Emlyn,Davies,1922-01-15,FALSE,Cymmer,FALSE,Prop,Wales v Australia,Cardiff,1947-12-20,2,2,0,0,0,0,0,0,0,1,1,0,0.5,Wales,-3.65,51.65
551,Handel,Greville,1921-09-13,FALSE,Drefach,FALSE,Scrum-half,Wales v Australia,Cardiff,1947-12-20,1,1,0,0,0,0,0,0,0,1,0,0,1,Wales,-4.1364409,51.79989399999999
552,John,Gwilliam,1923-02-28,FALSE,Pontypridd,FALSE,No. 8,Wales v Australia,Cardiff,1947-12-20,23,23,0,0,0,0,0,0,0,14,8,1,0.6086956521739131,Wales,-3.342314,51.60077399999999
553,Mal,James,1913-06-28,FALSE,Cifynydd,FALSE,Hooker,Wales v Australia,Cardiff,1947-12-20,5,5,0,0,0,0,0,0,0,2,2,1,0.4,Wales,-3.3189784,51.6213229
554,Les,Anthony,1921-11-21,FALSE,Rhiwfawr,FALSE,Prop,England v Wales,Twickenham,1948-01-17,3,3,0,0,0,0,0,0,0,1,1,1,0.3333333333333333,Wales,-3.8171993,51.7831754
555,Des,Jones,1925-10-25,FALSE,Tumble,FALSE,Lock,England v Wales,Twickenham,1948-01-17,1,1,0,0,0,0,0,0,0,0,0,1,0,Wales,-117.4270422,47.6468784
556,Frank,Trott,1915-03-14,FALSE,Mynachdy,FALSE,Fullback,England v Wales,Twickenham,1948-01-17,8,8,0,2,0,1,0,0,0,2,5,1,0.25,Wales,-3.201495,51.505795
557,Ray,Cale,1922-07-18,FALSE,Usk,FALSE,Flanker,Wales v England,Cardiff,1949-01-15,7,7,0,3,1,0,0,0,0,5,2,0,0.7142857142857143,Wales,-2.903404,51.703533
558,Ernie,Coleman,1917-11-03,FALSE,Newport,FALSE,Prop,Wales v England,Cardiff,1949-01-15,3,3,0,0,0,0,0,0,0,1,2,0,0.3333333333333333,Wales,-94.1043876,37.5278234
559,Don,Hayward,1925-06-30,FALSE,Pontypool,FALSE,Lock,Wales v England,Cardiff,1949-01-15,18,18,0,0,0,0,0,0,0,10,6,2,0.5555555555555556,Wales,-78.62753769999999,44.1002714
560,Alun,Meredith,1919-11-09,FALSE,Ystrad,FALSE,Lock,Wales v England,Cardiff,1949-01-15,3,3,0,3,1,0,0,0,0,1,2,0,0.3333333333333333,Wales,-3.462833,51.644183
561,Terry,Cook,1927-06-24,FALSE,Pontypridd,FALSE,Wing,Scotland v Wales,Murrayfield,1949-02-05,2,2,0,0,0,0,0,0,0,0,2,0,0,Wales,-3.342314,51.60077399999999
562,Windsor,Major,1927-06-15,FALSE,Llangynwyd,FALSE,Wing,France v Wales,Colombes,1949-03-26,2,2,0,0,0,0,0,0,0,1,1,0,0.5,Wales,-3.651747,51.587065
563,Peter,Stone,1924-06-20,FALSE,Loughor,FALSE,Flanker,France v Wales,Colombes,1949-03-26,1,1,0,0,0,0,0,0,0,0,1,0,0,Wales,-4.067286,51.665095
564,Malcolm,Thomas,1929-04-25,FALSE,Machen,FALSE,Centre,France v Wales,Colombes,1949-03-26,31,31,0,22,4,2,2,0,0,16,13,2,0.5161290322580645,Wales,-111.9958051,43.4660771
565,Clem,Thomas,1929-01-28,FALSE,Cardiff,FALSE,Flanker,France v Wales,Colombes,1949-03-26,28,28,0,3,1,0,0,0,0,18,9,1,0.6428571428571429,Wales,-3.17909,51.48158100000001
566,Trevor,Brewer,1930-08-16,FALSE,Newport,FALSE,Wing,England v Wales,Twickenham,1950-01-21,3,3,0,6,2,0,0,0,0,2,1,0,0.6666666666666666,Wales,-94.1043876,37.5278234
567,Dai,Davies,1925-05-02,FALSE,Penygraig,FALSE,Hooker,England v Wales,Twickenham,1950-01-21,20,20,0,0,0,0,0,0,0,13,6,1,0.65,Wales,-3.4511167,51.60910639999999
568,Roy,John,1925-12-03,FALSE,Neath,FALSE,Lock,England v Wales,Twickenham,1950-01-21,25,25,0,6,2,0,0,0,0,15,8,2,0.6,Wales,-3.805476,51.656991
569,Lewis,Jones,1931-04-11,FALSE,Gorseinon,FALSE,Fullback,England v Wales,Twickenham,1950-01-21,13,13,0,62,1,13,10,1,0,10,3,0,0.7692307692307693,Wales,-4.041545,51.669543
570,John,Robins,1926-05-17,FALSE,Cardiff,FALSE,Prop,England v Wales,Twickenham,1950-01-21,16,16,0,10,0,2,2,0,0,9,5,2,0.5625,Wales,-3.17909,51.48158100000001
571,Rex,Willis,1924-10-25,FALSE,Ystrad,FALSE,Scrum-half,England v Wales,Twickenham,1950-01-21,24,24,0,0,0,0,0,0,0,17,6,1,0.7083333333333334,Wales,-3.462833,51.644183
572,Gerwyn,Williams,1924-04-22,FALSE,Glyncorrwg,FALSE,Fullback,Ireland v Wales,Belfast,1950-03-11,13,13,0,0,0,0,0,0,0,8,4,1,0.6153846153846154,Wales,-3.628325,51.677721
573,Peter,Evans,1928-06-20,FALSE,Llanelly,FALSE,Flanker,Wales v England,Swansea,1951-01-20,2,2,0,0,0,0,0,0,0,1,1,0,0.5,Wales,-3.114332,51.824049
574,Allen,Forward,1921-06-04,FALSE,"Cwmavon, Monmouth",FALSE,Flanker,Scotland v Wales,Murrayfield,1951-02-03,6,6,0,0,0,0,0,0,0,4,2,0,0.6666666666666666,Wales,-3.0585644,51.7510714
575,Ben,Edwards,1923-05-29,FALSE,Sudbrook,FALSE,Lock,Wales v Ireland,Cardiff,1951-03-10,1,1,0,3,0,0,1,0,0,0,0,1,0,Wales,-76.7262014,39.3588704
576,Cliff,Morgan,1930-04-07,FALSE,Trebanog,FALSE,Fly-half,Wales v Ireland,Cardiff,1951-03-10,33,33,0,12,4,0,0,0,0,21,10,2,0.6363636363636364,Wales,-3.4219271,51.6004801
577,Haydn,Morris,1928-07-14,FALSE,Mountain Ash,FALSE,Wing,France v Wales,Colombes,1951-04-07,3,3,0,6,2,0,0,0,0,2,1,0,0.6666666666666666,Wales,-84.1288201,36.6575824
578,Billy,Williams,1929-11-19,FALSE,Gower,FALSE,Prop,France v Wales,Colombes,1951-04-07,26,26,0,3,1,0,0,0,0,18,8,0,0.6923076923076923,Wales,-4.1698781,51.5966706
579,Len,Blythe,1920-11-20,FALSE,Swansea,FALSE,Flanker,Wales v South Africa,Cardiff,1951-12-22,3,3,0,0,0,0,0,0,0,2,1,0,0.6666666666666666,Wales,-3.943645999999999,51.62144
580,Alun,Thomas,1926-02-03,FALSE,"Cwmavon, Glamorgan",FALSE,Centre,England v Wales,Twickenham,1952-01-19,13,13,0,6,1,0,0,1,0,11,2,0,0.8461538461538461,Wales,-3.766471,51.614044
581,Billy,Williams,1921-09-09,FALSE,Talywain,FALSE,Scrum-half,Ireland v Wales,Lansdowne Road,1952-03-08,3,3,0,0,0,0,0,0,0,2,1,0,0.6666666666666666,Wales,-3.071557,51.730524
582,Horace,Phillips,1928-08-24,FALSE,"Birchgrove, Swansea",FALSE,Wing,Wales v France,Swansea,1952-03-22,1,1,0,0,0,0,0,0,0,1,0,0,1,Wales,-3.872463,51.66731799999999
583,Geoff,Beckingham,1924-07-29,FALSE,Barry,FALSE,Hooker,Wales v England,Cardiff,1953-01-17,3,3,0,0,0,0,0,0,0,1,2,0,0.3333333333333333,Wales,-95.705564999999993,37.2248725
584,Roy,Burnett,1926-10-06,FALSE,Abercarn,FALSE,Fly-half,Wales v England,Cardiff,1953-01-17,1,1,0,0,0,0,0,0,0,0,1,0,0,Wales,-3.135657,51.646985
585,Terry,Davies,1932-09-24,FALSE,Llwynhendy,FALSE,Fullback,Wales v England,Cardiff,1953-01-17,23,23,0,55,0,8,13,0,0,11,11,1,0.4782608695652174,Wales,-4.1162768,51.6786796
586,Gareth,Griffiths,1931-11-27,FALSE,Penygraig,FALSE,Wing,Wales v England,Cardiff,1953-01-17,15,15,0,15,5,0,0,0,0,10,5,0,0.6666666666666666,Wales,-3.4511167,51.60910639999999
587,Dill,Johnson,1923-12-05,FALSE,Pontarddulais,FALSE,Flanker,Wales v England,Cardiff,1953-01-17,1,1,0,0,0,0,0,0,0,0,1,0,0,Wales,-4.037071,51.712266
588,Sid,Judd,1928-08-14,FALSE,Cardiff,FALSE,Flanker,Wales v England,Cardiff,1953-01-17,10,10,0,3,1,0,0,0,0,7,3,0,0.7,Wales,-3.17909,51.48158100000001
589,Courtenay,Meredith,1926-09-23,FALSE,Hopkinstown,FALSE,Prop,Scotland v Wales,Murrayfield,1953-02-07,18,18,0,3,1,0,0,0,0,11,7,0,0.6111111111111112,Wales,-3.3603474,51.6071246
590,Russell,Robins,1932-02-21,FALSE,Pontypridd,FALSE,No. 8,Scotland v Wales,Murrayfield,1953-02-07,17,17,0,3,1,0,0,0,0,12,5,0,0.7058823529411765,Wales,-3.342314,51.60077399999999
591,Trevor,Lloyd,1924-09-03,FALSE,Taibach,FALSE,Scrum-half,Wales v Ireland,Swansea,1953-03-14,2,2,0,0,0,0,0,0,0,2,0,0,1,Wales,-3.771794,51.587731
592,Gwyn,Rowlands,1928-12-19,FALSE,"Berkhamsted, Herts",FALSE,Wing,Wales v New Zealand,Cardiff,1953-12-19,4,4,0,13,1,2,2,0,0,3,1,0,0.75,Wales,-0.5678569000000001,51.75976600000001
593,Glyn,John,1932-02-22,FALSE,Neath,FALSE,Centre,England v Wales,Twickenham,1954-01-16,2,2,0,0,0,0,0,0,0,1,1,0,0.5,Wales,-3.805476,51.656991
594,Viv,Evans,1919-06-14,FALSE,Skewen,FALSE,Fullback,Ireland v Wales,Lansdowne Road,1954-03-13,3,3,0,25,0,2,7,0,0,3,0,0,1,Wales,-3.841789,51.660932
595,Leighton,Jenkins,1931-07-01,FALSE,New Tredegar,FALSE,No. 8,Ireland v Wales,Lansdowne Road,1954-03-13,5,5,0,0,0,0,0,0,0,4,1,0,0.8,Wales,-3.24018,51.72152699999999
596,Bryn,Meredith,1930-11-21,FALSE,Cwmbran,FALSE,Hooker,Ireland v Wales,Lansdowne Road,1954-03-13,42,42,0,12,4,0,0,0,0,22,16,4,0.5238095238095238,Wales,-3.0317889,51.6496546
597,Brian,Sparks,1931-06-23,FALSE,Llanharan,FALSE,Flanker,Ireland v Wales,Lansdowne Road,1954-03-13,7,7,0,0,0,0,0,0,0,5,2,0,0.7142857142857143,Wales,-3.439496,51.53864799999999
598,Denzil,Thomas,1929-04-21,FALSE,Llandyfriog,FALSE,Centre,Ireland v Wales,Lansdowne Road,1954-03-13,1,1,0,3,0,0,0,1,0,1,0,0,1,Wales,-4.432505,52.044854
599,Rhys,Williams,1930-07-14,FALSE,Cwmllynfell,FALSE,Lock,Ireland v Wales,Lansdowne Road,1954-03-13,33,33,0,3,1,0,0,0,0,19,13,1,0.5757575757575758,Wales,-3.824366,51.8023359
600,Len,Davies,1930-12-29,FALSE,Bynea,FALSE,Flanker,Wales v France,Cardiff,1954-03-27,3,3,0,0,0,0,0,0,0,3,0,0,1,Wales,-4.0953993,51.6780891
601,Ray,Williams,1927-11-13,FALSE,Felinfoel,FALSE,Wing,Wales v Scotland,Swansea,1954-04-10,3,3,0,3,1,0,0,0,0,3,0,0,1,Wales,-4.1448716,51.6987915
602,Glyn,Davies,1927-11-29,FALSE,Cefn Fforest,FALSE,Flanker,Wales v England,Cardiff,1955-01-22,1,1,0,0,0,0,0,0,0,1,0,0,1,Wales,-3.2113068,51.66993799999999
603,Arthur,Edwards,1927-10-07,FALSE,Bynea,FALSE,Fullback,Wales v England,Cardiff,1955-01-22,2,2,0,3,0,0,1,0,0,1,1,0,0.5,Wales,-4.0953993,51.6780891
604,Gordon,Wells,1928-10-25,FALSE,Ynyshir,FALSE,Centre,Wales v England,Cardiff,1955-01-22,7,7,0,3,1,0,0,0,0,5,1,1,0.7142857142857143,Wales,-3.412899,51.62519899999999
605,Garfield,Owen,1932-03-20,FALSE,Llanharan,FALSE,Fullback,Wales v Ireland,Cardiff,1955-03-12,6,6,0,26,0,7,4,0,0,5,1,0,0.8333333333333334,Wales,-3.439496,51.53864799999999
606,Derek,Williams,1924-11-24,FALSE,Cardiff,FALSE,Flanker,France v Wales,Colombes,1955-03-26,2,2,0,3,1,0,0,0,0,2,0,0,1,Wales,-3.17909,51.48158100000001
607,Onllwyn,Brace,1932-11-16,FALSE,Pontarddulais,FALSE,Scrum-half,England v Wales,Twickenham,1956-01-21,9,9,0,3,1,0,0,0,0,6,3,0,0.6666666666666666,Wales,-4.037071,51.712266
608,Cowboy,Davies,1929-12-30,FALSE,Bancyfelin,FALSE,Wing,England v Wales,Twickenham,1956-01-21,3,3,0,6,2,0,0,0,0,2,1,0,0.6666666666666666,Wales,-4.4355122,51.83532109999999
609,Harry,Morgan,1930-06-16,FALSE,"Goytre, Pontypool",FALSE,Centre,England v Wales,Twickenham,1956-01-21,4,4,0,3,1,0,0,0,0,3,1,0,0.75,Wales,-2.979924,51.73880399999999
610,Ray,Prosser,1927-03-02,FALSE,Pontypool,FALSE,Prop,Wales v Scotland,Cardiff,1956-02-04,23,23,0,3,1,0,0,0,0,13,9,1,0.5652173913043478,Wales,-78.62753769999999,44.1002714
611,Rex,Richards,1934-02-04,FALSE,Newport,FALSE,Prop,Wales v France,Cardiff,1956-03-24,1,1,0,0,0,0,0,0,0,1,0,0,1,Wales,-94.1043876,37.5278234
612,Geoff,Whitson,1930-12-04,FALSE,Newport,FALSE,Flanker,Wales v France,Cardiff,1956-03-24,3,3,0,0,0,0,0,0,0,3,0,0,1,Wales,-94.1043876,37.5278234
613,Geoff,Howells,1929-10-29,FALSE,Loughor,FALSE,Wing,Wales v England,Cardiff,1957-01-19,4,4,0,3,1,0,0,0,0,2,2,0,0.5,Wales,-4.067286,51.665095
614,Keith,Maddocks,1927-06-16,FALSE,Resolven,FALSE,Wing,Wales v England,Cardiff,1957-01-19,1,1,0,0,0,0,0,0,0,0,1,0,0,Wales,-3.693584,51.710349
615,Rory,O'Connor,1932-09-14,FALSE,Neath,FALSE,Flanker,Wales v England,Cardiff,1957-01-19,1,1,0,0,0,0,0,0,0,0,1,0,0,Wales,-3.805476,51.656991
616,Robin,Davies,1934-01-12,FALSE,Battersea,FALSE,Flanker,Scotland v Wales,Murrayfield,1957-02-02,6,6,0,3,1,0,0,0,0,3,2,1,0.5,Wales,-0.165547,51.47220069999999
617,Lloyd,Williams,1933-10-19,FALSE,Taff's Well,FALSE,Scrum-half,Scotland v Wales,Murrayfield,1957-02-02,13,13,0,0,0,0,0,0,0,6,5,2,0.46153846153846156,Wales,-3.27196,51.545383
618,Cyril,Davies,1936-11-21,FALSE,Ammanford,FALSE,Centre,Wales v Ireland,Cardiff,1957-03-09,7,7,0,0,0,0,0,0,0,5,1,1,0.7142857142857143,Wales,-3.988459,51.792888
619,John,Faull,1933-06-30,FALSE,Mumbles,FALSE,No. 8,Wales v Ireland,Cardiff,1957-03-09,16,16,0,8,1,1,1,0,0,9,6,1,0.5625,Wales,-3.999879,51.575906
620,Henry,Morgan,1932-12-22,FALSE,Carmarthen,FALSE,Prop,Wales v Ireland,Cardiff,1957-03-09,2,2,0,0,0,0,0,0,0,2,0,0,1,Wales,-4.312131,51.85762
621,Graham,Powell,1932-11-17,FALSE,Ebbw Vale,FALSE,Centre,Wales v Ireland,Cardiff,1957-03-09,2,2,0,0,0,0,0,0,0,2,0,0,1,Wales,-3.206151,51.777532
622,John,Collins,1931-01-16,FALSE,Aberavon,FALSE,Wing,Wales v Australia,Cardiff,1958-01-04,10,10,0,9,3,0,0,0,0,4,5,1,0.4,Wales,-3.804523699999999,51.6034701
623,Don,Devereux,1932-10-18,FALSE,Neath,FALSE,Prop,Wales v Australia,Cardiff,1958-01-04,3,3,0,0,0,0,0,0,0,2,0,1,0.6666666666666666,Wales,-3.805476,51.656991
624,Wynne,Evans,1926-08-13,FALSE,Llandybie,FALSE,Scrum-half,Wales v Australia,Cardiff,1958-01-04,1,1,0,0,0,0,0,0,0,1,0,0,1,Wales,-4.007789,51.8208259
625,Roddy,Evans,1934-12-19,FALSE,Cardiff,FALSE,Lock,Wales v Australia,Cardiff,1958-01-04,17,17,0,0,0,0,0,0,0,6,8,3,0.35294117647058826,Wales,-3.17909,51.48158100000001
626,Carwyn,James,1929-11-02,FALSE,Cefneithin,FALSE,Centre,Wales v Australia,Cardiff,1958-01-04,2,2,0,3,0,0,0,1,0,1,1,0,0.5,Wales,-4.1021804,51.8045633
627,Haydn,Morgan,1936-07-30,FALSE,Oakdale,FALSE,Flanker,England v Wales,Twickenham,1958-01-18,31,31,0,9,3,0,0,0,0,14,14,3,0.45161290322580644,Wales,-96.0650387,41.2334895
628,John,Evans,1926-06-30,FALSE,Mountain Ash,FALSE,Prop,Ireland v Wales,Lansdowne Road,1958-03-15,2,2,0,0,0,0,0,0,0,1,1,0,0.5,Wales,-84.1288201,36.6575824
629,Howard,Nicholls,1931-02-02,FALSE,Maesteg,FALSE,Wing,Ireland v Wales,Lansdowne Road,1958-03-15,1,1,0,0,0,0,0,0,0,1,0,0,1,Wales,-3.660466,51.60856200000001
630,Alun,Priday,1933-01-23,FALSE,"Whitchurch, Cardiff",FALSE,Fullback,Ireland v Wales,Lansdowne Road,1958-03-15,2,2,0,0,0,0,0,0,0,2,0,0,1,Wales,-3.2263847,51.51543650000001
631,Cyril,Roberts,1930-12-19,FALSE,Neath,FALSE,Wing,Ireland v Wales,Lansdowne Road,1958-03-15,2,2,0,3,1,0,0,0,0,1,1,0,0.5,Wales,-3.805476,51.656991
632,Cliff,Ashton,1932-12-17,FALSE,Cwmavon,FALSE,Fly-half,Wales v England,Cardiff,1959-01-17,7,7,0,3,1,0,0,0,0,4,2,1,0.5714285714285714,Wales,-3.766471,51.614044
